/* DATA DESCRIPTION:
Citation:	Giesecke, Thomas; Davis, Basil AS; Brewer, Simon; Finsinger, Walter; Wolters, Steffen; Blaauw, Maarten; de Beaulieu, Jacques-Louis; Binney, Heather; Fyfe, Ralph M; Gaillard-Lehmdahl, Marie-José; Gil-Romera, Graciela; van der Knaap, Pim Willem O; Kunes, Petr; Kühl, Norbert; van Leeuwen, Jaqueline F N; Leydet, Michelle; Lotter, André F; Ortu, Elena; Semmler, Malte Sebastian Swen; Bradshaw, Richard H W (2013): (2 Table Entity) Positions of cores. doi:10.1594/PANGAEA.804591, 
	In Supplement to: Giesecke, Thomas; Davis, Basil AS; Brewer, Simon; Finsinger, Walter; Wolters, Steffen; Blaauw, Maarten; de Beaulieu, Jacques-Louis; Binney, Heather; Fyfe, Ralph M; Gaillard, Marie-José; Gil-Romera, Graciela; van der Knaap, Pim Willem O; Kunes, Petr; Kühl, Norbert; van Leeuwen, Jaqueline F N; Leydet, Michelle; Lotter, André F; Ortu, Elena; Semmler, Malte Sebastian Swen; Bradshaw, Richard H W (2013): Towards mapping the late Quaternary vegetation change of Europe. Vegetation History and Archaeobotany, 23(1), 75-86, doi:10.1007/s00334-012-0390-y
Coverage:	MEDIAN LATITUDE: 50.183587 * MEDIAN LONGITUDE: 12.837398 * SOUTH-BOUND LATITUDE: 31.108333 * WEST-BOUND LONGITUDE: -20.609722 * NORTH-BOUND LATITUDE: 76.668333 * EAST-BOUND LONGITUDE: 60.750000
	DATE/TIME START: 1919-09-15T00:00:00 * DATE/TIME END: 2005-06-15T00:00:00
	MINIMUM ELEVATION: -94.0 m * MAXIMUM ELEVATION: 2760.0 m
Event(s):	A159 * LATITUDE: 42.184160 * LONGITUDE: 28.916660 * LOCATION: Black Sea, Bulgaria * COMMENT: Southwest continental slope of Black sea. Marine core from southwest slope of the Black Sea.
	ABANT * LATITUDE: 40.600000 * LONGITUDE: 31.283333 * LOCATION: Abant Gölü, Turkey
	ABBO * LATITUDE: 63.883333 * LONGITUDE: 14.450000 * DATE/TIME: 2002-06-15T00:00:00 * ELEVATION START: 387.0 m * ELEVATION END: 6.5 m * LOCATION: Abborrtjärnen, Sweden * DEVICE: Livingstone piston corer (LPC) * COMMENT: No laminations. centre of lake. Area: 3 ha. Lake. Physiography: bedrock basin. Surrounding vegetation: Pinus sylvestris, Picea abies, Betula sp. Vegetation formation: Middle boreal Forest.
	AC4HOLO (AC3/4Holocene) * LATITUDE: 42.986389 * LONGITUDE: 10.883333 * ELEVATION START: 157.0 m * ELEVATION END: 39.0 m * LOCATION: Lago dellAccesa, Italy * DEVICE: Russian sampler (RSAMP) * COMMENT: No laminations. Core diameter: 8 cm. Area: 16 ha. Lake. Physiography: karstic origin.
	AC4LATE (AC3/4Late-Glacial) * LATITUDE: 42.986389 * LONGITUDE: 10.883333 * ELEVATION START: 157.0 m * ELEVATION END: 39.0 m * LOCATION: Lago dellAccesa, Italy * DEVICE: Russian sampler (RSAMP) * COMMENT: No laminations. Core diameter: 8 cm. Area: 16 ha. Lake. Physiography: karstic origin.
	ADANGE * LATITUDE: 43.305556 * LONGITUDE: 41.333333 * DATE/TIME: 1984-08-15T00:00:00 * ELEVATION START: 1750.0 m * ELEVATION END: 2.1 m * LOCATION: Adange, Georgia * DEVICE: Spade (SPADE) * COMMENT: left coast of river. Local vegetation: Cyperaceae fen. Core diameter: 10 cm. Area: 0.25 ha. Meander of Adange river. Physiography: Fluvial terrace above flood-plain. Surrounding vegetation: Subalpine tall herbaceous vegetation.
	AE3 (Core3) * LATITUDE: 46.645833 * LONGITUDE: 7.543333 * DATE/TIME: 1986-06-30T00:00:00 * ELEVATION: 989.0 m * LOCATION: Aegelsee, Switzerland * DEVICE: Livingstone piston corer (LPC) * COMMENT: Core diameter: 4.8 cm. Raised bog with small lake.
	AELBI (ÄlbiFlue) * LATITUDE: 46.355556 * LONGITUDE: 7.583611 * DATE/TIME: 1997-07-10T00:00:00 * ELEVATION START: 1850.0 m * ELEVATION END: 0.0 m * LOCATION: Älbi Flue, Switzerland * DEVICE: Spade (SPADE) * COMMENT: No laminations. Local vegetation: mire, ca. raised bog. Core diameter: 10 cm. Area: 0.01 ha. Raised bog in Picea forest. Surrounding vegetation: Picea forest with some Pinus cembra.
	AF1974 (2) * LATITUDE: 56.233333 * LONGITUDE: -3.716667 * ELEVATION: 221.0 m * LOCATION: Abernethy Forest, United Kingdom * DEVICE: Livingstone borer (LIVB) * COMMENT: Peat hollow in a small clearing of pine. Physiography: shallow valley in hummocky morraine. Surrounding vegetation: mire surrounded by Pinus woods + Betula.
	AGE * LATITUDE: 55.833333 * LONGITUDE: 13.416667 * DATE/TIME: 1960-06-30T00:00:00 * ELEVATION: 58.0 m * LOCATION: Ageröds Mosse, Sweden * DEVICE: Piston corer (PC) * COMMENT: center of the bog. Core diameter: 6 cm. Area: 150 ha. Forested Sphagnum bog. Physiography: till. Surrounding vegetation: pasture and arable land.
	AHL5 (Core3) * LATITUDE: 53.700000 * LONGITUDE: 8.733333 * DATE/TIME: 1973-06-15T00:00:00 * ELEVATION START: 2.0 m * ELEVATION END: 3.4 m * LOCATION: Ahlenmoor, Germany * DEVICE: Metal boxes (MBOX) * COMMENT: Centre of raised bog under excavation. Core diameter: 4 cm. Area: 500 ha. Excavated bog. Physiography: Raised bog. Surrounding vegetation: Sphagnetum.
	AHLEQUEL (Ahlequellmoor) * LATITUDE: 51.730550 * LONGITUDE: 9.509440 * DATE/TIME: 1999-09-01T00:00:00 * ELEVATION: 300.0 m * LOCATION: Germany * DEVICE: Core (CORE)
	AHOLAMMI (Core1) * LATITUDE: 61.883333 * LONGITUDE: 25.216667 * DATE/TIME: 1984-04-15T00:00:00 * ELEVATION START: 114.0 m * ELEVATION END: 10.5 m * LOCATION: Aholami, Finland * DEVICE: Russian sampler (RSAMP) * COMMENT: Deepest point in the lake. Core diameter: 5 cm. Area: 2.16 ha. Lake with mesic forest. Physiography: hilly morainic country. Surrounding vegetation: mesic spruce forest.
	AKGOL * LATITUDE: 37.500000 * LONGITUDE: 33.733333 * LOCATION: Akgöl Adabag, Turkey
	AKUV * LATITUDE: 69.125000 * LONGITUDE: 27.683333 * DATE/TIME: 1973-04-15T00:00:00 * ELEVATION START: 170.0 m * ELEVATION END: 2.5 m * LOCATION: Akuvaara, Finland * DEVICE: Livingstone corer (LIVC) * COMMENT: Near lake centre. Core diameter: 5.4 cm. Area: 4 ha. Lake. Physiography: Hill of sandy/gravelly outwash. Surrounding vegetation: Thin pine forest.
	ALCUDIA * LATITUDE: 39.792778 * LONGITUDE: 3.119167 * DATE/TIME: 1992-06-30T00:00:00 * ELEVATION START: 0.0 m * ELEVATION END: 0.0 m * LOCATION: Albufera Alcudia, Spain * COMMENT: NE of Mallorca island. Surrounding vegetation: halophytes.
	ALETSCHW (AletschwaldPJ) * LATITUDE: 46.232222 * LONGITUDE: 8.014167 * DATE/TIME: 1997-08-04T00:00:00 * ELEVATION START: 2017.0 m * ELEVATION END: 0.0 m * LOCATION: Aletschwald, Switzerland * DEVICE: Spade (SPADE) * COMMENT: Local vegetation: mire. Core diameter: 20 cm. Area: 0.1 ha. filled-up natural lake. Physiography: behind moraine (Daunmoräne). Surrounding vegetation: Pinus cembra, Larix, Rhododendron.
	ALETSW (Aletschwald) * LATITUDE: 46.232222 * LONGITUDE: 8.014167 * DATE/TIME: 1971-06-15T00:00:00 * ELEVATION: 2017.0 m * LOCATION: Aletschwald, Switzerland * DEVICE: Hiller corer (HILC) * COMMENT: No laminations. Local vegetation: minerotrophic mire. Area: 0.1 ha. filled-up natural lake. Physiography: behind moraine (Daunmoräne). Surrounding vegetation: Pinus cembra, Larix, Rhododendron.
	ALGENDAR * LATITUDE: 39.940556 * LONGITUDE: 3.958611 * ELEVATION START: 21.0 m * ELEVATION END: 24.0 m * LOCATION: Algendar, Spain * DEVICE: Industrial corer (INDC) * COMMENT: Lagoons. South coast of Minorca Island. Physiography: littoral core. Surrounding vegetation: Quercus ilex.
	ALLOS * LATITUDE: 44.241667 * LONGITUDE: 6.702222 * DATE/TIME: 1972-07-15T00:00:00 * ELEVATION START: 2121.0 m * ELEVATION END: 0.0 m * LOCATION: Plan du Laus, France * DEVICE: Hiller corer (HILC) * COMMENT: Eastern part of the meadows. Core diameter: 4 cm. Area: 0.5 ha. Meandring stream in a flat meadow. Physiography: glacial depression. Surrounding vegetation: larch on rocky slopes.
	ALPENR (MoorAlpenrose) * LATITUDE: 47.086667 * LONGITUDE: 11.778611 * ELEVATION: 1880.0 m * LOCATION: Moor Alpenrose, Austria * DEVICE: Metal boxes (50x8x8 cm) (MBOX5088) * COMMENT: No laminations. 130 m SE of guest house. Mire between mountain slope and ridge. Physiography: margin of glacier forfield. Vegetation formation: subalpine shrub zone.
	ALSA (Core2) * LATITUDE: 43.117778 * LONGITUDE: -4.016667 * DATE/TIME: 1983-06-30T00:00:00 * ELEVATION: 560.0 m * LOCATION: Alsa, Spain * COMMENT: North side of Portillo Jumedre. Area: 100 ha. Peat bog. Physiography: the peat is situated on Trias. Surrounding vegetation: Ericaceae-Coniferous forest.
	AMBY86 (CoreAII) * LATITUDE: 45.790833 * LONGITUDE: 5.283333 * DATE/TIME: 1986-06-30T00:00:00 * ELEVATION: 410.0 m * LOCATION: Hières sur Amby, France * COMMENT: Area: 6 ha.
	AMPOIX * LATITUDE: 45.633333 * LONGITUDE: 2.933333 * DATE/TIME: 1985-06-30T00:00:00 * ELEVATION START: 1015.0 m * ELEVATION END: 9.6 m * LOCATION: Ampoix, France * DEVICE: Russian corer (RUSC) * COMMENT: Core diameter: 5 cm. Area: 10 ha. Explosion crater (maar). Surrounding vegetation: meadows.
	AMSOPO2 (PO2) * LATITUDE: 46.725000 * LONGITUDE: 7.575000 * DATE/TIME: 1980-07-15T00:00:00 * ELEVATION START: 641.0 m * ELEVATION END: 3.3 m * LOCATION: Amsoldingersee, Switzerland * DEVICE: Livingstone borer (LIVB) * COMMENT: 5 km southwest of Thun. Core diameter: 8 cm. Lake surrounded by fields and meadows. Surrounding vegetation: agricultural landscape.
	AMSOPO3 (PO3) * LATITUDE: 46.725000 * LONGITUDE: 7.575000 * ELEVATION: 641.0 m * LOCATION: Amsoldingersee, Switzerland * DEVICE: Livingstone borer (LIVB) * COMMENT: Core diameter: 5 cm. Lake surrounded by fields and meadows. Surrounding vegetation: agricultural landscape.
	AMTKEL * LATITUDE: 43.268056 * LONGITUDE: 41.308333 * DATE/TIME: 1982-08-15T00:00:00 * ELEVATION START: 1830.0 m * ELEVATION END: 1.2 m * LOCATION: Amtkel, Georgia * DEVICE: Spade (SPADE) * COMMENT: Right shore of river. Core diameter: 10 cm. Area: 0.3 ha. Lower part of glacial trough. Physiography: Head of river Amtkel. Surrounding vegetation: Subalpine beech elfin woodland.
	AMTKEL1 * LATITUDE: 43.283333 * LONGITUDE: 41.291667 * DATE/TIME: 1985-08-15T00:00:00 * ELEVATION START: 1860.0 m * ELEVATION END: 1.3 m * LOCATION: Amtkel, Georgia * DEVICE: Spade (SPADE) * COMMENT: Northern part of morainic ridge. Core diameter: 10 cm. Area: 0.1 ha. Bottom of the trough valley on Amtkel mn. Physiography: toe of slope foot of morainic ridge. Surrounding vegetation: subalpine foot of morainic ridge.
	AMTKEL2 * LATITUDE: 43.291667 * LONGITUDE: 41.284167 * DATE/TIME: 1985-08-15T00:00:00 * ELEVATION START: 1850.0 m * ELEVATION END: 0.4 m * LOCATION: Amtkel, Georgia * DEVICE: Spade (SPADE) * COMMENT: Southern part of morainic ridge. Core diameter: 10 cm. Area: 0.1 ha. Bottom of old trough. Physiography: depression between morenic ridges. Surrounding vegetation: subalpine beech elfin woodland.
	AMTKEL3 * LATITUDE: 43.266667 * LONGITUDE: 41.291667 * DATE/TIME: 1985-08-15T00:00:00 * ELEVATION START: 1860.0 m * ELEVATION END: 0.6 m * LOCATION: Amtkel, Georgia * DEVICE: Spade (SPADE) * COMMENT: Cntrl part of depression btw the morain. Core diameter: 10 cm. Area: 0.2 ha. Slope of the old glacial trough. Physiography: depression between the morains. Surrounding vegetation: subalpine beech elfin woodland.
	ANFSHEIL * LATITUDE: 57.316667 * LONGITUDE: -3.900000 * DATE/TIME: 1966-06-15T00:00:00 * ELEVATION: 595.0 m * LOCATION: Allt na Feithe Sheilich, United Kingdom * DEVICE: Spade (SPADE) * COMMENT: N of Carn nam bain-tighearn. Eroding blanket bog. Physiography: watershed plateau. Surrounding vegetation: Calluneto-Eriophoretum (McKean, 1962).
	ANNA * LATITUDE: 45.858333 * LONGITUDE: 7.654167 * ELEVATION: 2304.0 m * LOCATION: Tourbière de Santa Anna, Italy * COMMENT: Area: 13.7 ha. Peat bog. Surrounding vegetation: Picea abies, Pinus cembra, Larix decidua.
	ANNERAY * LATITUDE: 49.159444 * LONGITUDE: -0.059444 * ELEVATION: 5.0 m * LOCATION: Anneray, France
	ANSTM203 * LATITUDE: 49.703889 * LONGITUDE: -1.878611 * ELEVATION: 5.0 m * LOCATION: Anse Saint-Martin, France
	ANSTMA60 * LATITUDE: 49.703889 * LONGITUDE: -1.878611 * ELEVATION: 5.0 m * LOCATION: Anse Saint-Martin, France
	ANTAS * LATITUDE: 37.208333 * LONGITUDE: -1.823611 * DATE/TIME: 1994-06-30T00:00:00 * ELEVATION START: 0.0 m * ELEVATION END: 0.0 m * LOCATION: Antas, Spain * DEVICE: Industrial corer (INDC) * COMMENT: NE of Almeria, 1 km from Puerto Rey beach. Core diameter: 10 cm. Sea shore. Physiography: flat.
	ANTU (Core11) * LATITUDE: 59.133330 * LONGITUDE: 26.325830 * DATE/TIME: 1988-06-15T00:00:00 * ELEVATION START: 95.0 m * ELEVATION END: 4.0 m * LOCATION: Åntu Sinijarv, Estonia * DEVICE: Russian corer (RUSC) * COMMENT: Southern part of modern lake. Core diameter: 8 cm. Area: 2.4 ha. Lake, spring-fed, closed, thin fen margi. Physiography: near esker ridge on Pandivere uplands. Surrounding vegetation: pine and Corylus, Betula and Alnus rare
	AR1 * LATITUDE: 42.366660 * LONGITUDE: 27.733330 * DATE/TIME: 1980-05-15T00:00:00 * ELEVATION: 0.0 m * Lake water depth: 5.9 m * LOCATION: Arkutino Lake, Bulgaria * DEVICE: Russian sampler (RSAMP) * COMMENT: Margine part. Core diameter: 2.5 cm. Area: 0.1 ha. Lake.
	AR2 * LATITUDE: 42.366667 * LONGITUDE: 27.733333 * DATE/TIME: 1982-10-15T00:00:00 * ELEVATION: 0.0 m * LOCATION: Arkutino Lake, Bulgaria * DEVICE: Russian sampler (RSAMP) * COMMENT: central part of the lake. Core diameter: 2.5 cm. Area: 0.1 ha. Lake.
	ARONDE * LATITUDE: 49.462500 * LONGITUDE: 2.691111 * ELEVATION: 50.0 m * LOCATION: Aronde, France
	ARS1 * LATITUDE: 43.200000 * LONGITUDE: 27.833330 * DATE/TIME: 1979-11-15T00:00:00 * ELEVATION: 0.0 m * Lake water depth: 9.1 m * LOCATION: Lake Varna, Bulgaria * COMMENT: Southern part of the lake. Core diameter: 2.5 cm. Lake connected with the Black sea. Surrounding vegetation: halophytic vegetation and Phragmites.
	ARTSLOUG (1) * LATITUDE: 52.950000 * LONGITUDE: -6.433333 * ELEVATION: 490.0 m * LOCATION: Arts Lough, Ireland * COMMENT: Area: 3 ha. Eroding blanket peat. Physiography: Steep cliffs to south rising to 800m. Surrounding vegetation: Heathland vegetation.
	ASBOTOR * LATITUDE: 58.416667 * LONGITUDE: 13.833333 * DATE/TIME: 1976-06-30T00:00:00 * ELEVATION START: 280.0 m * ELEVATION END: 4.0 m * LOCATION: Åsbotorpsjön, Sweden * DEVICE: Livingstone borer (LIVB) * COMMENT: Core diameter: 10 cm. Small lake.
	ASHIK * LATITUDE: 57.250000 * LONGITUDE: -5.833333 * DATE/TIME: 1975-04-15T00:00:00 * ELEVATION: 30.0 m * LOCATION: Loch Ashik, United Kingdom * DEVICE: Livingstone piston corer (LPC) * COMMENT: Local vegetation: Carex rostata-Menyanthes trifoliata fen. Core diameter: 7.5 cm. Area: 2.2 ha. Lake with marginal fen and bog. Physiography: depression between Torridonian sandstone. Surrounding vegetation: blanket bog and heathland.
	ATEML (Atemlöchermoos) * LATITUDE: 46.937500 * LONGITUDE: 11.015278 * ELEVATION: 1790.0 m * LOCATION: Atemlöchermoos, Austria * DEVICE: Geonor corer (GEOC) * COMMENT: No laminations. Core diameter: 5.4 cm. Mire. Physiography: in post-glacial moraine landscape.
	ATW * LATITUDE: 48.013333 * LONGITUDE: 6.994444 * DATE/TIME: 1974-06-30T00:00:00 * ELEVATION START: 926.0 m * ELEVATION END: 13.2 m * LOCATION: Altenweiher, France * DEVICE: Dachnowski corer (DACH) * COMMENT: Greatest depth near dam. Core diameter: 6 cm. Area: 7 ha. Lake sediment with Alnus peat on top. Physiography: cirque lake. Surrounding vegetation: montane forest.
	ATXURI01 (Core6) * LATITUDE: 43.250000 * LONGITUDE: -1.550000 * ELEVATION: 500.0 m * LOCATION: Atxuri, Spain * DEVICE: Russian corer (RUSC) * COMMENT: Core diameter: 4.5 cm.
	AUNEAU (boring A10) * LATITUDE: 48.456110 * LONGITUDE: 1.793610 * DATE/TIME: 1995-06-15T00:00:00 * ELEVATION: 127.0 m * LOCATION: Auneau, France * DEVICE: Russian sampler (RSAMP) * COMMENT: center of the valley. Core diameter: 10 cm. Area: 2 ha. Swamp. Physiography: alluvial valley. Surrounding vegetation: wet meadow.
	AVG0702 * LATITUDE: 45.065000 * LONGITUDE: 7.386667 * ELEVATION: 353.0 m * LOCATION: Lago Grande di Avigliana, Italy
	AVRIG1 (Core1) * LATITUDE: 45.716667 * LONGITUDE: 24.383333 * ELEVATION: 400.0 m * LOCATION: Avrig, Romania * DEVICE: Russian sampler (RSAMP) * COMMENT: Local vegetation: Sphagnum. Core diameter: 8 cm. Area: 10 ha. Sphagnum peat bog. Physiography: ancient depression of bank river. Surrounding vegetation: Pasture land. Vegetation formation: Quercus, Carpathian and Beech forests.
	AVRIG2 (Core2) * LATITUDE: 45.716667 * LONGITUDE: 24.383333 * ELEVATION: 400.0 m * LOCATION: Avrig, Romania * DEVICE: Russian sampler (RSAMP) * COMMENT: Local vegetation: Sphagnum. Core diameter: 8 cm. Area: 10 ha. Sphagnum peat bog. Physiography: ancient depression of bank river. Surrounding vegetation: Pasture land. Vegetation formation: Quercus, Carpathian and Beech forests.
	BABOZ1 * LATITUDE: 66.375000 * LONGITUDE: 37.516667 * DATE/TIME: 1992-08-15T00:00:00 * ELEVATION START: 138.0 m * ELEVATION END: 1.5 m * LOCATION: Babozero, Russia * DEVICE: Livingstone borer (LIVB) * COMMENT: Southern part of the lake. Core diameter: 5 cm. Area: 5000 ha. Lake. Physiography: end moraine. Surrounding vegetation: Pinus-Picea-Betula forest.
	BACHALP (Bachalpsee) * LATITUDE: 46.401944 * LONGITUDE: 8.011944 * DATE/TIME: 1996-04-15T00:00:00 * ELEVATION: 2265.0 m * LOCATION: Bachalpsee, Switzerland * DEVICE: Livingstone corer (LIVC) * COMMENT: No laminations. Local vegetation: open water. Area: 8 ha.
	BALDEGG (Baldeggersee) * LATITUDE: 47.166667 * LONGITUDE: 8.283333 * ELEVATION START: 463.0 m * ELEVATION END: 66.0 m * LOCATION: Baldeggersee, Switzerland * DEVICE: Core (CORE) * COMMENT: Laminated. deepest part of lake. Local vegetation: open water. Area: 5200 ha. Lake. Surrounding vegetation: arable fields and meadows.
	BALLIN * LATITUDE: 52.200000 * LONGITUDE: -10.308333 * ELEVATION: 84.0 m * LOCATION: Ballinloghig Lake, Ireland * DEVICE: Square-rod piston corer (SRPC) * COMMENT: 5.5 km NNW of Dingle town. Area: 2 ha. Lake with marginal fen. Physiography: Southern slope of Slieve Mish mountains. Surrounding vegetation: Blanket bog, heath, pasture and woodland.
	BALLYBET * LATITUDE: 53.166667 * LONGITUDE: -6.250000 * ELEVATION: 250.0 m * LOCATION: Ballybetagh, Ireland * COMMENT: Spring-fed marsh or spring. Physiography: On the edge of the Dublin mountains.
	BANYOLES (Core2) * LATITUDE: 42.133333 * LONGITUDE: 2.750000 * ELEVATION: 173.0 m * LOCATION: Banyoles, Spain * COMMENT: East bank of the lake. Lake. Physiography: lake. Surrounding vegetation: evergreen oak forest with Betula.
	BARHEIA * LATITUDE: 69.700000 * LONGITUDE: 19.850000 * DATE/TIME: 2001-06-30T00:00:00 * ELEVATION START: 317.0 m * ELEVATION END: 0.1 m * LOCATION: Barheivatn, Norway * COMMENT: Local vegetation: Sparganium, Menyanthes. Core diameter: 11 cm. Area: 11.7 ha. Lake. Physiography: peninsula. Surrounding vegetation: shrubs and dwarf shrubs. Vegetation formation: between northern boreal and low-alpine.
	BASR (LaGrandeBasseR) * LATITUDE: 48.050000 * LONGITUDE: 6.950000 * DATE/TIME: 2000-10-03T00:00:00 * ELEVATION START: 945.0 m * ELEVATION END: 0.0 m * LOCATION: La Grande Basse, France * DEVICE: Gouge auger, Pürckhauer (GA) * COMMENT: No laminations. Local vegetation: fen. Core diameter: 6 cm. Area: 0.5 ha. Peat bog. Physiography: valley-bottom. Surrounding vegetation: Abies-Fagus forest.
	BASVILLE * LATITUDE: 47.186111 * LONGITUDE: -1.858056 * ELEVATION: 1.0 m * LOCATION: Basse-Ville, France
	BEBR5 (Core5) * LATITUDE: 54.085278 * LONGITUDE: 24.121111 * ELEVATION: 149.0 m * LOCATION: Bebrukas Lake, Lithuania * DEVICE: Instorf corer (INSC) * COMMENT: 10 m to the NW of NW edge of the lake. Core diameter: 8 cm. Area: 3 ha. Bogged-up edge of the lake. Physiography: on the marginal morainic upland. Surrounding vegetation: broad-leaved Picea forests.
	BEGBUNAR * LATITUDE: 42.150000 * LONGITUDE: 22.550000 * ELEVATION: 1750.0 m * LOCATION: Peat-bog Begbunar, Bulgaria * COMMENT: No laminations. Local vegetation: Cyperaceae Sphagnumbog. Physiography: slope near a freshwater spring. Surrounding vegetation: decreasing pasture, Pinus sylves return. Vegetation formation: beech belt.
	BELALP1 (BelalpBaI) * LATITUDE: 46.230833 * LONGITUDE: 7.590278 * DATE/TIME: 1956-09-25T00:00:00 * ELEVATION: 2330.0 m * LOCATION: Alp Lüsga Belalp 1, Switzerland * DEVICE: Hiller corer (HILC) * COMMENT: No laminations. near Tyndall memorial. Mire in depression.
	BELALP2 (BelalpIIF) * LATITUDE: 46.230278 * LONGITUDE: 7.583889 * DATE/TIME: 1968-08-02T00:00:00 * ELEVATION: 2290.0 m * LOCATION: Alp Lüsga Belalp 2, Switzerland * DEVICE: Hiller corer (HILC) * COMMENT: No laminations. not far from Belalp 1 2330 m. Mire.
	BELATE01 (CoreB1) * LATITUDE: 43.033333 * LONGITUDE: -2.050000 * ELEVATION: 847.0 m * LOCATION: Puerto de Belate, Spain * DEVICE: Russian corer (RUSC)
	BELATE05 (Core2) * LATITUDE: 43.033333 * LONGITUDE: -2.050000 * ELEVATION: 847.0 m * LOCATION: Puerto de Belate, Spain * DEVICE: Russian corer (RUSC)
	BELIYA2C * LATITUDE: 41.733611 * LONGITUDE: 24.139722 * ELEVATION: 1547.0 m * LOCATION: Beliya Kanton, Bulgaria
	BELL (boringI) * LATITUDE: 46.575278 * LONGITUDE: 6.093056 * DATE/TIME: 1998-06-30T00:00:00 * ELEVATION: 1093.0 m * LOCATION: Bellefontaine, France * DEVICE: Russian sampler (RSAMP) * COMMENT: Shore of lake. Core diameter: 10 cm. Area: 13 ha. Lake. Surrounding vegetation: Picea-Fagus-Abies.
	BELLE * LATITUDE: 52.183333 * LONGITUDE: -7.033333 * ELEVATION: 33.0 m * LOCATION: Belle Lake, Ireland * DEVICE: Livingstone borer (LIVB) * COMMENT: Area: 45 ha. Marsh on infilled lake basin. Surrounding vegetation: pasture surrounds this Phragmites fen.
	BELLENGR * LATITUDE: 49.116667 * LONGITUDE: -0.215000 * ELEVATION: 20.0 m * LOCATION: Bellengreville, France
	BERGAKYL (Core2) * LATITUDE: 57.166667 * LONGITUDE: 16.150000 * ELEVATION START: 73.0 m * ELEVATION END: 2.5 m * LOCATION: Bergakyllen, Sweden * DEVICE: Russian corer (RUSC) * COMMENT: Core diameter: 7.5 cm. Area: 11 ha. Large lake-considerable input from north. Physiography: hummocky morraine and exposed bedrock. Surrounding vegetation: mainly spruce and pine.
	BESBOG (Core2) * LATITUDE: 41.750000 * LONGITUDE: 23.666667 * DATE/TIME: 1987-06-30T00:00:00 * ELEVATION START: 2240.0 m * ELEVATION END: 1.6 m * LOCATION: Besbog, Bulgaria * DEVICE: Industrial corer (INDC) * COMMENT: Core diameter: 10 cm. Glacial lake. Surrounding vegetation: subalpine herb vegetation, Pinus mugo tur.
	BEUF (boringI) * LATITUDE: 46.823611 * LONGITUDE: 6.423056 * DATE/TIME: 1998-10-20T00:00:00 * ELEVATION: 1111.0 m * LOCATION: La Beuffarde, France * DEVICE: Russian sampler (RSAMP) * COMMENT: center of peat bog. Core diameter: 8 cm. Area: 1.4 ha. Peat bog. Surrounding vegetation: Picea-Abies.
	BEVERA (LagodiBévera) * LATITUDE: 45.510833 * LONGITUDE: 8.533889 * DATE/TIME: 1991-06-28T00:00:00 * ELEVATION START: 325.0 m * ELEVATION END: 0.0 m * LOCATION: Lago di Bévera, Italy * DEVICE: HON-Kajak sediment corer (HONK) (URI: doi:10.1007/BF00153740) * COMMENT: No laminations. deepest part of lake. Local vegetation: open water. Core diameter: 6 cm. Area: 1.5 ha.
	BEYSEHIR * LATITUDE: 37.541667 * LONGITUDE: 31.500000 * DATE/TIME: 1970-06-15T00:00:00 * ELEVATION START: 1120.0 m * ELEVATION END: 0.0 m * LOCATION: Beysehir Gölü I, Turkey * DEVICE: Dachnowski corer (DACH) * COMMENT: SW Turkey, 1.5 km E of village Yesildag. Core diameter: 3.6 cm. Area: 20 ha. Marsh. Surrounding vegetation: culture land.
	BEZDON * LATITUDE: 62.033333 * LONGITUDE: 32.766667 * DATE/TIME: 1970-06-30T00:00:00 * ELEVATION: 121.0 m * LOCATION: Bezdonnoe, Russia * DEVICE: Russian sampler (RSAMP) * COMMENT: center of mire. Core diameter: 4 cm. Area: 179 ha. Drained mire. Physiography: rolling moraine. Surrounding vegetation: Pinus, Picea.
	BEZYMIAN * LATITUDE: 54.216667 * LONGITUDE: 30.000278 * DATE/TIME: 1977-08-15T00:00:00 * ELEVATION: 190.0 m * LOCATION: Bezymiannoe, Belarus * DEVICE: Russian corer (RUSC) * COMMENT: Northern part of the lake (sublitoral). Core diameter: 10 cm. Area: 30 ha. Lake. Physiography: lake. Surrounding vegetation: mixed Pinus, Betula and Alnus.
	BIBER (Bibersee) * LATITUDE: 47.130556 * LONGITUDE: 8.280000 * DATE/TIME: 1995-06-09T00:00:00 * ELEVATION: 429.0 m * LOCATION: Bibersee, Switzerland * DEVICE: Livingstone piston corer (LPC) * COMMENT: No laminations. deep part of former lake. Local vegetation: Grassland. Core diameter: 8 cm. Area: 15 ha. infilled lake. Physiography: ground moraines or drumlins. Surrounding vegetation: cultural fields, mainly grassland.
	BIECAI * LATITUDE: 44.200000 * LONGITUDE: 7.700000 * ELEVATION: 1920.0 m * LOCATION: Torbiera del Biecai, Italy * DEVICE: Russian corer (RUSC) * COMMENT: No laminations. southern part of the Ellero Valley. Local vegetation: Cyperaceae, JuncaceaePeat bog. Physiography: valley composed by porphyry and quarztit. Surrounding vegetation: N. strictae pastures. Vegetation formation: subalpine climate.
	BIOT * LATITUDE: 43.800000 * LONGITUDE: 7.100000 * DATE/TIME: 1995-06-30T00:00:00 * LOCATION: Biot, France * DEVICE: Hammer (HAM) * COMMENT: 1.5 km from the coast. Physiography: plateau. Surrounding vegetation: Quercus pubescens, Quercus suber, Quercus ilex.
	BISKUP4 (CoreB/4) * LATITUDE: 52.783330 * LONGITUDE: 17.733330 * ELEVATION: 80.0 m * Lake water depth: 4 m * LOCATION: Biskupinskie Lake, Poland * COMMENT: No laminations. Area: 116.6 ha. eutrophic lake.
	BISOCA * LATITUDE: 45.533333 * LONGITUDE: 26.666667 * DATE/TIME: 1957-06-30T00:00:00 * ELEVATION: 900.0 m * LOCATION: Bisoca, Romania * DEVICE: Russian sampler (RSAMP) * COMMENT: No laminations. Local vegetation: Sphagnum. Core diameter: 8 cm. Area: 1.5 ha. Lake with sphagnum. Physiography: peat bog (sphagnum). Surrounding vegetation: Pinus forest. Vegetation formation: Beech and pinus forests.
	BITSCH3 (Bitsch-Naters) * LATITUDE: 46.202778 * LONGITUDE: 7.592778 * DATE/TIME: 1956-09-24T00:00:00 * ELEVATION: 1030.0 m * LOCATION: Bitsch-Naters, Switzerland * DEVICE: Hiller corer (HILC) * COMMENT: No laminations. Local vegetation: nonefilled-up natural lake.
	BJARHG * LATITUDE: 55.450000 * LONGITUDE: 13.783333 * DATE/TIME: 1986-08-15T00:00:00 * ELEVATION START: 50.0 m * ELEVATION END: 0.0 m * LOCATION: Bjärsjöholmssjön, Sweden * DEVICE: Russian corer (RUSC) * COMMENT: central part of the basin. Core diameter: 10 cm. Area: 15 ha. Overgrown ancient lake, pasture land. Physiography: hummocky dead-ice tills. Surrounding vegetation: Fagus forests, pasture land.
	BJORKSJO * LATITUDE: 57.705556 * LONGITUDE: 12.393056 * DATE/TIME: 1975-03-15T00:00:00 * ELEVATION: 87.0 m * LOCATION: Bjorksjodamm, Sweden * DEVICE: Livingstone borer (LIVB) * COMMENT: 1 km north of Rya. Core diameter: 10 cm. Area: 0.5 ha. Bog pool, lake previously much bigger. Physiography: in a small valley surrounded by slopes. Surrounding vegetation: forests with pine and spruce.
	BLAINVIL * LATITUDE: 49.203056 * LONGITUDE: -0.308889 * ELEVATION: 5.0 m * LOCATION: Blainville-sur-Orne, France
	BLATO1 * LATITUDE: 49.041667 * LONGITUDE: 15.191667 * DATE/TIME: 1958-10-15T00:00:00 * ELEVATION START: 645.0 m * ELEVATION END: 3.0 m * LOCATION: Blato, Czech Republic * DEVICE: Hiller borer (HILB) * COMMENT: central part of the peat deposit. Core diameter: 3 cm. Area: 25 ha. After deep drainage quite mineral peat. Physiography: broad flat closure of a brook valley. Surrounding vegetation: present: secondary spruce plantations.
	BLAVASS * LATITUDE: 64.916667 * LONGITUDE: 11.666667 * DATE/TIME: 1977-09-15T00:00:00 * ELEVATION START: 92.0 m * ELEVATION END: 0.0 m * LOCATION: Blavasstjonn, Norway * DEVICE: Russian sampler (RSAMP) * COMMENT: SW side of lake. Core diameter: 10 cm. Area: 50 ha. Lake with surrounding fen. Physiography: underlying bedrock (Amphibole/Gneiss). Surrounding vegetation: mixed pine/spruce forest/ombrogenic mire.
	BLEDOWO3 * LATITUDE: 52.550000 * LONGITUDE: 20.666660 * ELEVATION: 78.0 m * Lake water depth: 5.6 m * LOCATION: Bledowo Lake, Poland * DEVICE: Wieckowski sampler (WSAMP) * COMMENT: central part of the lake. Area: 8 ha. Lake with reedswamp zone. Physiography: pingo scar, erosion or dead ice kettle. Surrounding vegetation: grasslands, pine and mixed linden forest.
	BLOMOY * LATITUDE: 60.533333 * LONGITUDE: 4.883333 * DATE/TIME: 1968-06-30T00:00:00 * ELEVATION START: 36.0 m * ELEVATION END: 3.1 m * LOCATION: Blomoy, Norway * DEVICE: Hiller borer (HILB) * COMMENT: center of bog. Core diameter: 6.4 cm. Area: 0.03 ha. Bog. Physiography: bedrock depression. Surrounding vegetation: heath.
	BOBERT * LATITUDE: 50.550000 * LONGITUDE: 34.500000 * DATE/TIME: 1959-06-30T00:00:00 * ELEVATION START: 135.0 m * ELEVATION END: 3.2 m * LOCATION: Moskovskiy Bobrik, Ukraine * DEVICE: Hiller borer (HILB) * COMMENT: Eastern side of the bog. Core diameter: 5 cm. Area: 31 ha. Fen bog. Surrounding vegetation: deciduous forests and meadow steppes.
	BOBROV (CoreOK-1-B) * LATITUDE: 49.445833 * LONGITUDE: 19.566667 * DATE/TIME: 1971-09-15T00:00:00 * ELEVATION START: 620.0 m * ELEVATION END: 2.3 m * LOCATION: Bobrov, Slovakia * DEVICE: Sampling by hand (HAND) * COMMENT: middle of the previous peat lens. Local vegetation: Brown moss, minerotrophic sedge vegetation. Core diameter: 10 cm. Area: 2 ha. Exploited spring brown moss fen. Physiography: fluvioglacial plateau of Orava basin. Surrounding vegetation: meadows, pasturland, spruce forest.
	BOGBOLT * LATITUDE: 50.333333 * LONGITUDE: 23.950000 * DATE/TIME: 1974-06-15T00:00:00 * ELEVATION START: 190.0 m * ELEVATION END: 3.0 m * LOCATION: Bolotnya, Ukraine * DEVICE: Hiller borer (HILB) * COMMENT: Centre of the bog. Core diameter: 5 cm. Area: 800 ha. Fen bog. Surrounding vegetation: forests.
	BOGROOS (1) * LATITUDE: 53.733333 * LONGITUDE: -0.066667 * ELEVATION: 5.0 m * LOCATION: The Bog, United Kingdom * DEVICE: Russian corer (RUSC) * COMMENT: 2 km south west of Roos. Area: 1.2 ha. The area has been artifically flooded. Physiography: oval depression in lateglacial till. Surrounding vegetation: formerly open water and fen carr.
	BOHNIGSE (Core2) * LATITUDE: 46.259167 * LONGITUDE: 7.843056 * LOCATION: Boehnigsee Goldmoos, Switzerland
	BOITES1 * LATITUDE: 45.056111 * LONGITUDE: 5.885278 * ELEVATION: 1560.0 m * LOCATION: Lac des Boites, France
	BOKABLA1 (Bokanjacko_Blato_1) * LATITUDE: 44.183330 * LONGITUDE: 15.233330 * DATE/TIME: 1968-03-18T12:00:00 * ELEVATION: 25.0 m * Recovery: 6.1 m * LOCATION: Croatia * DEVICE: Dachnowski corer (DACH) * COMMENT: drained lake
	BOSHEI1 * LATITUDE: 51.578611 * LONGITUDE: 6.094722 * DATE/TIME: 1984-09-15T00:00:00 * ELEVATION: 18.0 m * LOCATION: Bosscherheide, Netherlands * DEVICE: Metal boxes (40x10x10 cm) (MBOXL) * COMMENT: Temporary exposure in sandpit. Core diameter: 10 cm. Sand pit in fluvial sediments. Physiography: organogenic infill of a LG paleo-channel. Surrounding vegetation: pine plantation with some birch.
	BOSHEI3 (Core2) * LATITUDE: 51.578611 * LONGITUDE: 6.094722 * DATE/TIME: 1984-09-15T00:00:00 * ELEVATION: 18.0 m * LOCATION: Bosscherheide, Netherlands * DEVICE: Metal boxes (MBOX) * COMMENT: Sand pit in fluvial sediments. Physiography: organogenic infill of a LG paleo-channel. Surrounding vegetation: pine plantation with some birch.
	BOUCHB5 * LATITUDE: 44.916667 * LONGITUDE: 3.783333 * ELEVATION: 1200.0 m * LOCATION: Lac du Bouchet, France
	BOUCHB53 * LATITUDE: 44.916667 * LONGITUDE: 3.783333 * ELEVATION: 1200.0 m * LOCATION: Lac du Bouchet, France
	BOUCHB60 * LATITUDE: 44.916667 * LONGITUDE: 3.783333 * ELEVATION: 1200.0 m * LOCATION: Lac du Bouchet, France
	BOUCHD * LATITUDE: 44.916667 * LONGITUDE: 3.783333 * ELEVATION: 1200.0 m * LOCATION: Lac du Bouchet, France
	BRASPART (CoreI) * LATITUDE: 48.416667 * LONGITUDE: -3.666667 * DATE/TIME: 1958-07-15T00:00:00 * LOCATION: Saint Michel de Braspart, France * COMMENT: W of the bog, 1.5 km ENE Mont St Michel. a bog. Physiography: on the top of the Montagne d'Arrée.
	BREDCOUN (Core2) * LATITUDE: 50.933333 * LONGITUDE: -0.600000 * DATE/TIME: 1983-06-15T00:00:00 * ELEVATION START: 190.0 m * ELEVATION END: 6.7 m * LOCATION: Brede Bridge, United Kingdom * DEVICE: Russian corer (RUSC) * COMMENT: Centre of floodplain. Core diameter: 10 cm. Floodplain mire, peat overlain by alluvi. Physiography: floodplain. Surrounding vegetation: arable and some pastoral farming.
	BREITNAU (Core1) * LATITUDE: 47.933333 * LONGITUDE: 8.066667 * DATE/TIME: 1986-06-30T00:00:00 * ELEVATION START: 986.0 m * ELEVATION END: 7.0 m * LOCATION: Breitnau-Neuhof, Germany * DEVICE: Piston corer Streif/Merkt (PC_SM) * COMMENT: No laminations. center of the bog. Local vegetation: Pino mugo-Sphgnetum magellanici. Core diameter: 5 cm. Area: 5 ha. bog with Pinus uncinata forest. Surrounding vegetation: spruce forest. Vegetation formation: mountain forest: beech-fir-spruce forest.
	BRETAYE (LacdeBretaye) * LATITUDE: 46.193611 * LONGITUDE: 7.042222 * DATE/TIME: 1992-07-08T00:00:00 * ELEVATION START: 1780.0 m * ELEVATION END: 8.0 m * LOCATION: Lac de Bretaye, Switzerland * DEVICE: HON-Kajak sediment corer (HONK) (URI: doi:10.1007/BF00153740) * COMMENT: No laminations. deepest part of lake. Local vegetation: open water. Core diameter: 6 cm. Area: 4 ha. Lake.
	BRICQRUE * LATITUDE: 48.929722 * LONGITUDE: -1.543056 * ELEVATION: 5.0 m * LOCATION: Lingreville, France
	BRUCHBG1 (Bruchberg-1) * LATITUDE: 51.781280 * LONGITUDE: 10.494340 * ELEVATION: 910.0 m * LOCATION: Harz, Germany * CAMPAIGN: Beug_pollen-archive * BASIS: Sampling on land * DEVICE: Sampling by hand (HAND) * COMMENT: Bruchberg, Niedersachsen/Niedermoor- und Hochmoortorfe/Holozän/Pollenzonen IV-X/Standarpollendiagramm für den Hochharz
	BRUCHBG2 (Bruchberg-2) * LATITUDE: 51.759020 * LONGITUDE: 10.460100 * ELEVATION: 825.0 m * LOCATION: Harz, Germany * CAMPAIGN: Beug_pollen-archive * BASIS: Sampling on land * DEVICE: Sampling by hand (HAND) * COMMENT: Kammhochmoor, Niedermoortorfe, Sphagnum-Torfe/Holozän, Spätglazial/Pollenzonen III-X
	BRURSKAR * LATITUDE: 61.416667 * LONGITUDE: 8.666667 * ELEVATION START: 1309.0 m * ELEVATION END: 1.0 m * LOCATION: Brurskardtjorni, Norway * COMMENT: Local vegetation: open water. Core diameter: 11 cm. bedrock basin. Physiography: montain. Surrounding vegetation: Salix and Betula shrubs, open grassland. Vegetation formation: low alpine vegetation.
	BRUVAT (Core2) * LATITUDE: 70.183333 * LONGITUDE: 28.416667 * DATE/TIME: 1973-04-15T00:00:00 * ELEVATION START: 119.0 m * ELEVATION END: 6.5 m * LOCATION: Bruvatnet, Norway * DEVICE: Livingstone corer (LIVC) * COMMENT: Near lake centre. Core diameter: 5.4 cm. Area: 60 ha. Lake. Physiography: Bedrock hills mantled by gl. drift (till. Surrounding vegetation: Thin mountain birch scrub.
	BUNTESM (BuntesMoor) * LATITUDE: 47.062500 * LONGITUDE: 11.303333 * ELEVATION: 2285.0 m * LOCATION: Buntes Moor, Austria * DEVICE: Metal boxes (50x8x8 cm) (MBOX5088) * COMMENT: No laminations. periodially flooded glacier-valley mire. Physiography: just outside moraine of A.D. 1850. Vegetation formation: subalpine shrub zone.
	BUTTER * LATITUDE: 54.166667 * LONGITUDE: -6.033333 * DATE/TIME: 1971-06-30T00:00:00 * ELEVATION: 458.0 m * LOCATION: Butter Mountain, United Kingdom * DEVICE: Monolith boxes (MONOB) * COMMENT: Summit of mountain. Ombrogenous blanket-bog. Physiography: summit of mountain. Surrounding vegetation: heather / rough grassland.
	CABURN * LATITUDE: 50.857222 * LONGITUDE: 0.050556 * ELEVATION: 6.0 m * LOCATION: Caburn, United Kingdom
	CAIRON * LATITUDE: 49.238889 * LONGITUDE: -0.449722 * ELEVATION: 38.0 m * LOCATION: Cairon, France
	CAM-LG * LATITUDE: 58.083333 * LONGITUDE: -5.000000 * ELEVATION START: 130.0 m * ELEVATION END: 10.0 m * LOCATION: Cam Loch, United Kingdom * DEVICE: Mackereth corer (MACC) * COMMENT: Area: 262 ha. a large lake.
	CAM-PG (PG) * LATITUDE: 58.083333 * LONGITUDE: -5.000000 * ELEVATION START: 130.0 m * ELEVATION END: 10.0 m * LOCATION: Cam Loch, United Kingdom * DEVICE: Mackereth corer (MACC) * COMMENT: Area: 262 ha. a large lake.
	CANDIEIR * LATITUDE: 40.341667 * LONGITUDE: -7.576389 * DATE/TIME: 1985-06-30T00:00:00 * ELEVATION START: 1409.0 m * ELEVATION END: 0.0 m * LOCATION: Charco da Candieira, Portugal * DEVICE: Livingstone piston corer (LPC) * COMMENT: center of pond. Local vegetation: Batrachium, Antinoria, Juncus heterophyllus. Core diameter: 8 cm. Area: 1.5 ha. Pond 100 m across, adjacent peaty area. Physiography: base of hanging valley, granite, glaciated. Surrounding vegetation: Nardus, Ericaceae, Cytisus, Genista, Halimium.
	CARNINO (CoreI) * LATITUDE: 44.150000 * LONGITUDE: 7.694444 * ELEVATION: 1905.0 m * LOCATION: Selle di Carnino, Italy * COMMENT: Area: 5 ha. Large peaty depression. Surrounding vegetation: Subalpine meadows.
	CARRIV * LATITUDE: 54.316667 * LONGITUDE: -5.983333 * DATE/TIME: 1971-06-30T00:00:00 * ELEVATION: 260.0 m * LOCATION: Carrivmoragh, United Kingdom * DEVICE: Monolith boxes (MONOB) * COMMENT: Base of valley floor. Cut-over valley peat, eroded. Physiography: valley floor. Surrounding vegetation: rough grassland.
	CAUDELAI * LATITUDE: 47.261111 * LONGITUDE: -1.780556 * ELEVATION: 1.0 m * LOCATION: La Caudelais, France
	CERGOWA (Cerg) * LATITUDE: 49.533333 * LONGITUDE: 21.700000 * ELEVATION: 495.0 m * LOCATION: Cergowa Gora, Poland * COMMENT: No laminations. Area: 4 ha. Peat bog.
	CETULAT * LATITUDE: 50.000000 * LONGITUDE: 24.000000 * DATE/TIME: 1975-06-15T00:00:00 * ELEVATION START: 235.0 m * ELEVATION END: 1.2 m * LOCATION: Tsetula, Ukraine * DEVICE: Hiller borer (HILB) * COMMENT: Centre of the bog. Core diameter: 5 cm. Area: 9 ha. Fen bog. Surrounding vegetation: forests.
	CHA2 * LATITUDE: 45.820833 * LONGITUDE: 7.807500 * DATE/TIME: 1993-06-30T00:00:00 * ELEVATION: 2320.0 m * LOCATION: Tourbière de Champlong, Italy * COMMENT: Area: 5.6 ha. Peat. Surrounding vegetation: Carex, Potentilla, Larix d.
	CHANGE * LATITUDE: 48.116667 * LONGITUDE: -0.788889 * LOCATION: Change-Glatinier, France
	CHANTEME * LATITUDE: 45.916667 * LONGITUDE: 0.016667 * ELEVATION: 69.0 m * LOCATION: Chantemerle, France
	CHERNIH * LATITUDE: 53.416667 * LONGITUDE: 26.433333 * DATE/TIME: 1982-08-15T00:00:00 * ELEVATION: 168.0 m * LOCATION: Chernikhovo, Belarus * DEVICE: Russian corer (RUSC) * COMMENT: central part of the bog. Local vegetation: cultivated area. Core diameter: 10 cm. Area: 620 ha. Bog. Physiography: Outwash plain. Surrounding vegetation: Pinus-Betula, Alnus.
	CHEYLADE * LATITUDE: 45.090000 * LONGITUDE: 2.895000 * ELEVATION START: 1040.0 m * ELEVATION END: 4.9 m * LOCATION: Etang de Cheylade, France * DEVICE: Russian peat borer (RPB) * COMMENT: Etang.
	CHFPONES * LATITUDE: 49.381944 * LONGITUDE: -1.360556 * ELEVATION: 2.0 m * LOCATION: Chef-du-Pont, France
	CHIRENS1 (TourbièredeChirens) * LATITUDE: 45.423333 * LONGITUDE: 5.561667 * ELEVATION: 460.0 m * LOCATION: Tourbière de Chirens, France * COMMENT: No laminations. Area: 1.1 ha. bog. Physiography: basin behind the moraines. Surrounding vegetation: clearing area: decidious,oak,hornbeam. Vegetation formation: terres froides.
	CHISTIC * LATITUDE: 57.335000 * LONGITUDE: 33.000000 * DATE/TIME: 1986-07-15T00:00:00 * ELEVATION START: 205.0 m * ELEVATION END: 3.5 m * LOCATION: Chistic, Russia * DEVICE: Borer (BOR) * COMMENT: Western part of the moor. Core diameter: 5 cm. Area: 8402 ha. Oligo-mezotrophic moor. Physiography: interstream area of the rivers Selizharo.
	CHIVRES * LATITUDE: 49.616667 * LONGITUDE: 3.816667 * DATE/TIME: 1962-09-15T00:00:00 * LOCATION: Le Marais St Boetien, France * COMMENT: Marsh. Surrounding vegetation: Betula, Populus, Salix, Quercus.
	CHROISGP * LATITUDE: 57.568333 * LONGITUDE: -5.327778 * LOCATION: Loch aChroisg, United Kingdom
	CHUTTI (Chutti/Boltigen) * LATITUDE: 46.380556 * LONGITUDE: 7.233889 * DATE/TIME: 1966-06-15T00:00:00 * ELEVATION: 925.0 m * LOCATION: Chutti, Boltigen, Switzerland * DEVICE: Hiller corer (HILC) * COMMENT: No laminations. steep valley behind village. Mire. Physiography: narrow valley.
	CLAIR * LATITUDE: 57.558889 * LONGITUDE: -5.343611 * ELEVATION: 92.0 m * LOCATION: Loch Clair, United Kingdom * DEVICE: Mackereth corer (MACC) * COMMENT: Large loch. Physiography: sheltered by mountains. Surrounding vegetation: Betula and Pinus sylvestris woodlands.
	CLAP68 (Core68) * LATITUDE: 44.147222 * LONGITUDE: 7.238889 * DATE/TIME: 1968-06-15T00:00:00 * ELEVATION: 2260.0 m * LOCATION: Clapeyret, France * DEVICE: Hiller corer (HILC) * COMMENT: No laminations. Local vegetation: Carex peat. Area: 1.5 ha. Carex peat. Physiography: formerly glaciated, cristalline. Surrounding vegetation: Larix, Picea, Pinus cembra open forest. Vegetation formation: tree limit.
	CLAP69 (Core69) * LATITUDE: 44.147222 * LONGITUDE: 7.238889 * ELEVATION: 2260.0 m * LOCATION: Clapeyret, France * COMMENT: Local vegetation: Carex peat. Area: 1.5 ha. Carex peat. Physiography: formerly glaciated, cristalline. Surrounding vegetation: Larix, Picea, Pinus cembra open forest. Vegetation formation: tree limit.
	CLATTERI (Core1) * LATITUDE: 55.066667 * LONGITUDE: -4.283333 * DATE/TIME: 1965-09-15T00:00:00 * ELEVATION: 210.0 m * LOCATION: Clatteringshaws Loch, United Kingdom * DEVICE: Spade (SPADE) * COMMENT: Clatteringshaws Loch, NE shore. Eroded blanket bog with pine stumps. Physiography: flat ground by Clatteringshaws reservoir. Surrounding vegetation: Molinietum.
	CLEAT * LATITUDE: 57.066667 * LONGITUDE: -6.333333 * DATE/TIME: 1973-08-15T00:00:00 * ELEVATION: 38.0 m * LOCATION: Loch Cleat, United Kingdom * DEVICE: Livingstone piston corer (LPC) * COMMENT: Local vegetation: Carex rostata-Menyanthes trifoliata fen. Core diameter: 5 cm. Area: 1.25 ha. Lake with marginal fen. Physiography: rock basin in dolerite. Surrounding vegetation: grassland and shallow blanket bog.
	COIREBOG (Core3) * LATITUDE: 57.850000 * LONGITUDE: -4.416667 * DATE/TIME: 1966-06-15T00:00:00 * ELEVATION: 259.0 m * LOCATION: Coire Bog, United Kingdom * DEVICE: Hiller corer (HILC) * COMMENT: N side of Abhainn aChoire Bhuig. Extensive blanket bog. Physiography: gently undulating morainic topography. Surrounding vegetation: degraded trichophoreto-Callunetum.
	COLFIORI * LATITUDE: 43.025000 * LONGITUDE: 12.925000 * DATE/TIME: 1994-06-30T00:00:00 * ELEVATION START: 752.0 m * ELEVATION END: 0.0 m * LOCATION: Colfiorito, Italy * DEVICE: Russian corer (RUSC) * COMMENT: South of Colfiorito, close to road N77. Core diameter: 10 cm. Swamp. Physiography: flat marsh.
	COOL69B (69B) * LATITUDE: 52.350000 * LONGITUDE: -6.600000 * ELEVATION: 50.0 m * LOCATION: Coolteen, Ireland * DEVICE: Livingstone borer (LIVB) * COMMENT: Area: 5 ha. Marsh on infilled lake basin. Surrounding vegetation: pasture surrounds the marsh.
	COOLT * LATITUDE: 50.333333 * LONGITUDE: 24.116667 * DATE/TIME: 1974-06-15T00:00:00 * ELEVATION START: 190.0 m * ELEVATION END: 3.0 m * LOCATION: Kulichkovskoye, Ukraine * DEVICE: Hiller borer (HILB) * COMMENT: Western side of the bog. Core diameter: 5 cm. Area: 55 ha. Fen bog. Surrounding vegetation: forests.
	COORAN * LATITUDE: 55.116667 * LONGITUDE: -4.400000 * DATE/TIME: 1965-09-15T00:00:00 * ELEVATION: 274.0 m * LOCATION: Cooran Lane, United Kingdom * DEVICE: Spade (SPADE) * COMMENT: 1.5 km East of Dungeon hill. Area: 0.12 ha. Conifer plantation. Physiography: flat ground in valley bottom. Surrounding vegetation: conifer plantation.
	CORREO (boring1) * LATITUDE: 44.508333 * LONGITUDE: 5.983056 * DATE/TIME: 1998-06-30T00:00:00 * ELEVATION: 1090.0 m * LOCATION: Correo, France * COMMENT: South french Alpes mountains. Local vegetation: Grassland. Area: 1.04 ha. Peat gutter. Physiography: glacis-bank. Surrounding vegetation: oak and beech grove.
	COUDERT * LATITUDE: 45.274444 * LONGITUDE: 1.946389 * ELEVATION: 500.0 m * LOCATION: Les Chaux de Coudert, France * DEVICE: Russian sampler (RSAMP) * COMMENT: No laminations. Peat bog. Physiography: plateau of Tulle area.
	COULVAIN (Coulvain) * LATITUDE: 49.066667 * LONGITUDE: -0.716667 * DATE/TIME: 1997-06-15T00:00:00 * ELEVATION: 145.0 m * LOCATION: Coulvain, France * COMMENT: No laminations. Local vegetation: Humid plantsloamy channel. Physiography: gravelly table. Surrounding vegetation: cultivated fields.
	CPORTER * LATITUDE: 39.870556 * LONGITUDE: 4.131389 * DATE/TIME: 1994-06-30T00:00:00 * ELEVATION START: 24.0 m * ELEVATION END: 13.6 m * LOCATION: Calan Porter, Spain * DEVICE: Industrial corer (INDC) * COMMENT: Lagoons. Core diameter: 10 cm. South coast of Minorca Island. Surrounding vegetation: Quercus ilex.
	CRABEC * LATITUDE: 49.683333 * LONGITUDE: -1.275000 * ELEVATION: 2.0 m * LOCATION: Havre de Crabec, France
	CRAGGIE * LATITUDE: 58.002778 * LONGITUDE: -4.843333 * ELEVATION: 154.0 m * LOCATION: Loch Craggie, United Kingdom * DEVICE: Mackereth corer (MACC) * COMMENT: Area: 18 ha. Small loch. Surrounding vegetation: moorland.
	CREGGAN * LATITUDE: 54.250000 * LONGITUDE: -9.600000 * ELEVATION: 60.0 m * LOCATION: Cregganmore, Ireland * DEVICE: Livingstone borer (LIVB) * COMMENT: Core diameter: 6 cm. Small lake. Physiography: in a small gently sloping basin. Surrounding vegetation: blanket bog.
	CRISTOL (boring1) * LATITUDE: 44.997500 * LONGITUDE: 6.633333 * DATE/TIME: 1997-06-30T00:00:00 * ELEVATION: 2248.0 m * LOCATION: Cristol Lake, France * COMMENT: Internals south french Alpes mountains. Local vegetation: Grassland. Area: 1.8 ha. Peat bog. Physiography: lake.
	CROOB (Core1) * LATITUDE: 54.333333 * LONGITUDE: -5.983333 * DATE/TIME: 1971-06-30T00:00:00 * ELEVATION: 462.0 m * LOCATION: Slieve Croob, United Kingdom * DEVICE: Monolith boxes (MONOB) * COMMENT: Cut-over blanket peat. Physiography: undulating granodiorite surface. Surrounding vegetation: heather / rough grassland.
	CS-4 * LATITUDE: 46.477222 * LONGITUDE: 19.190833 * ELEVATION START: 91.0 m * ELEVATION END: 0.1 m * LOCATION: Voros-mocsar, Hungary * DEVICE: Vibro Corer (VC) * COMMENT: Eastern part of the edge of dead channel. Local vegetation: Riverside shrubbery. Core diameter: 5 cm. Area: 1 ha. Marsh formed in a dead channel of Danube. Surrounding vegetation: Cultivated plain with meadows,pasture.
	CSOGLE (IMOLA-CS) * LATITUDE: 47.215833 * LONGITUDE: 17.255000 * ELEVATION: 134.0 m * LOCATION: Csögle, Hungary
	CTAR * LATITUDE: 50.266667 * LONGITUDE: 26.016667 * DATE/TIME: 1978-08-15T00:00:00 * ELEVATION START: 198.0 m * ELEVATION END: 4.5 m * LOCATION: Starniki, Ukraine * DEVICE: Hiller corer (HILC) * COMMENT: Centre of the bog. Core diameter: 5 cm. Area: 1359 ha. Fen bog. Surrounding vegetation: Forests.
	CUAII (CuadramónII) * LATITUDE: 43.474167 * LONGITUDE: -7.534722 * ELEVATION: 700.0 m * LOCATION: Montes do Buio Cuadramón, Spain * DEVICE: Dachnowski corer (DACH) * COMMENT: No laminations. Local vegetation: Erica, Calluna, Eriophorum, NartheciumPeat bog. Surrounding vegetation: deforested medium mountain. Vegetation formation: Bioclimatic Eurosiberian area.
	CUETOAV * LATITUDE: 43.116667 * LONGITUDE: -4.364167 * DATE/TIME: 1982-06-30T00:00:00 * ELEVATION: 1320.0 m * LOCATION: Cueto de la Avellanosa, Spain * COMMENT: North side of the peat bog. Core diameter: 5 cm. Area: 2.5 ha. Peat bog. Physiography: the peat is on permo-triasic sand. Surrounding vegetation: Ericaceae.
	CZE1 * LATITUDE: 45.368333 * LONGITUDE: 5.566944 * ELEVATION: 375.0 m * LOCATION: Marais de Charauze, France * COMMENT: No laminations. NE of the marsh. Local vegetation: Phragmite with shrubs and trees. Area: 20 ha. Marsh. Physiography: little basin. Surrounding vegetation: humid vegetation.
	DAGSMOO * LATITUDE: 58.333333 * LONGITUDE: 14.700000 * DATE/TIME: 1980-11-15T00:00:00 * ELEVATION START: 260.0 m * ELEVATION END: 0.0 m * LOCATION: Dags Mosse, Sweden * DEVICE: Russian corer (RUSC) * COMMENT: In the middle of the southern part. Core diameter: 10 cm. Area: 99 ha. Raised Pinus-Sedum-Sphagnum bog. Physiography: tills and glaciofluvial depressions. Surrounding vegetation: Pinus-Betula (Picea) belt.
	DALLICAN * LATITUDE: 60.391667 * LONGITUDE: -1.100000 * DATE/TIME: 1990-06-30T00:00:00 * ELEVATION START: 56.0 m * ELEVATION END: 3.9 m * LOCATION: Dallican Water, United Kingdom * DEVICE: Livingstone piston corer (LPC) * COMMENT: Core diameter: 5 cm. Area: 1 ha. Lake. Physiography: natural rock basin. Surrounding vegetation: Calluna vulgaris, Cyperaceae, Sphagnum.
	DALMUT * LATITUDE: 69.166667 * LONGITUDE: 20.716667 * DATE/TIME: 2001-06-30T00:00:00 * ELEVATION START: 355.0 m * ELEVATION END: 0.0 m * LOCATION: Dalmutladdo, Norway * COMMENT: Local vegetation: Sphagnum mosses. Core diameter: 11 cm. Area: 7.2 ha. Lake. Physiography: depression in the valley. Surrounding vegetation: Betula forest. Vegetation formation: boreal forest.
	DAUGES * LATITUDE: 46.012500 * LONGITUDE: 1.416667 * ELEVATION: 620.0 m * LOCATION: Tourbière des Dauges, France * DEVICE: Russian sampler (RSAMP) * COMMENT: No laminations. Local vegetation: aquatic vegetation. Area: 50 ha. Peat bog. Physiography: catchment area with a granitic hillock. Surrounding vegetation: vegetation of moor and upgrading forest.
	DED (CoreHJ-4-A) * LATITUDE: 50.083333 * LONGITUDE: 17.216667 * DATE/TIME: 1978-10-15T00:00:00 * ELEVATION START: 1380.0 m * ELEVATION END: 0.7 m * LOCATION: Velky Ded, Czech Republic * DEVICE: Sampling by hand (HAND) * COMMENT: central part of the deposit. Local vegetation: Eriophorum vaginatum, Sphagnum. Core diameter: 10 cm. Area: 2 ha. Ombrotrophic bog. Physiography: flat plateau of the mountain ridge. Surrounding vegetation: Calamagrosti villosae Piceetum.
	DELORETT (MooramRofenberg) * LATITUDE: 46.829167 * LONGITUDE: 10.825556 * DATE/TIME: 1919-09-15T00:00:00 * ELEVATION: 2760.0 m * LOCATION: Moor am Rofenberg, Austria * DEVICE: Metal boxes (50x8x8 cm) (MBOX5088) * COMMENT: No laminations. deepest part of bog. Local vegetation: Polytr.norv., alp., jun., Nardus, Trich.caes. Area: 0.04 ha. Palsa-like hummocky bog. Physiography: on horizontal area. Surrounding vegetation: grazed meadows far above tree limit. Vegetation formation: alpine.
	DERRYC * LATITUDE: 52.016667 * LONGITUDE: -9.416667 * DATE/TIME: 1982-11-15T00:00:00 * ELEVATION START: 60.0 m * ELEVATION END: 1.2 m * LOCATION: Derrycunihy, Ireland * DEVICE: Russian corer (RUSC) * COMMENT: Centre. Core diameter: 4 cm. Area: 0.03 ha. Small hollow. Physiography: depression of unknown origin. Surrounding vegetation: mature Quercus petraea woodland.
	DLINNOE * LATITUDE: 62.316667 * LONGITUDE: 33.850000 * DATE/TIME: 1979-06-30T00:00:00 * ELEVATION: 66.0 m * LOCATION: Dlinnoe, Russia * DEVICE: Russian sampler (RSAMP) * COMMENT: center of mire. Core diameter: 4 cm. Area: 70 ha. Mire. Physiography: ridge denudational-tectonic relief. Surrounding vegetation: Pinus, Picea.
	DOLG2-3 (Profile2-3) * LATITUDE: 55.233333 * LONGITUDE: 28.183333 * DATE/TIME: 1994-06-15T00:00:00 * ELEVATION START: 173.0 m * ELEVATION END: 5.0 m * LOCATION: Dolgoe, Belarus * DEVICE: Russian corer (RUSC) * COMMENT: Southern part of the lake. Core diameter: 8 cm. Area: 260 ha. Lake. Physiography: moraine uplands. Surrounding vegetation: spruce-pine forests alternate with field.
	DOLG5-7 (Profile5-7) * LATITUDE: 55.233333 * LONGITUDE: 28.183333 * DATE/TIME: 1994-06-15T00:00:00 * ELEVATION START: 173.0 m * ELEVATION END: 5.0 m * LOCATION: Dolgoe, Belarus * DEVICE: Russian corer (RUSC) * COMMENT: Southern part of the lake. Core diameter: 8 cm. Area: 260 ha. Lake. Physiography: moraine uplands. Surrounding vegetation: spruce-pine forests alternate with field.
	DOLINA (CoreOK-9-A) * LATITUDE: 49.516667 * LONGITUDE: 19.283333 * DATE/TIME: 1977-10-15T00:00:00 * ELEVATION START: 850.0 m * ELEVATION END: 3.5 m * LOCATION: Zlatnicka Dolina, Slovakia * DEVICE: Sampling by hand (HAND) * COMMENT: central part of the peat deposit. Local vegetation: Eriophorum vaginatum, Sphagnum recurvum. Core diameter: 10 cm. Area: 4 ha. Sloping poor transitional fen. Physiography: down slope valley-spring mire. Surrounding vegetation: mixed beech forest.
	DOMSJON * LATITUDE: 58.300000 * LONGITUDE: 12.450000 * DATE/TIME: 1975-06-30T00:00:00 * ELEVATION START: 129.0 m * ELEVATION END: 5.7 m * LOCATION: Domsjön, Sweden * DEVICE: Livingstone borer (LIVB) * COMMENT: Core diameter: 10 cm. Area: 1 ha. Small lake, the highest on plateau. Physiography: top of plateau with exposed rock. Surrounding vegetation: coniferous forest of pine and spruce.
	DOMSV * LATITUDE: 70.316667 * LONGITUDE: 31.033333 * DATE/TIME: 1975-04-15T00:00:00 * ELEVATION START: 120.0 m * ELEVATION END: 6.0 m * LOCATION: Domsvatnet, Norway * DEVICE: Livingstone corer (LIVC) * COMMENT: Centre of the main basin of the lake. Core diameter: 5.4 cm. Area: 9 ha. Lake. Physiography: Rolling bedrock mantled by gl. drift. Surrounding vegetation: Mossy dwarf-shrub heath.
	DONVOLD * LATITUDE: 68.133333 * LONGITUDE: 13.583333 * DATE/TIME: 1979-09-15T00:00:00 * ELEVATION START: 10.0 m * ELEVATION END: 3.6 m * LOCATION: Donvold, Norway * DEVICE: Plastic tube (PTUB) * COMMENT: In the middle of the bog. Core diameter: 10 cm. Area: 25 ha. Partly disturbed bog. Surrounding vegetation: open.
	DORTMUND (DortmunderHütte) * LATITUDE: 47.100000 * LONGITUDE: 11.000000 * ELEVATION: 1880.0 m * LOCATION: Dortmunder Hütte, Austria * DEVICE: Metal boxes (50x8x8 cm) (MBOX5088) * COMMENT: No laminations. Local vegetation: raised bog, open water since 1976. Core diameter: 8 cm. raised bog, artificial lake since 1976. Physiography: pleistocene moraine landscape. Surrounding vegetation: raised bog. Vegetation formation: subalpine Pinus cembra forest.
	DOSSACC (Dossaccio) * LATITUDE: 46.281389 * LONGITUDE: 10.201389 * DATE/TIME: 1963-06-15T00:00:00 * ELEVATION: 1730.0 m * LOCATION: Dossaccio, Bormio, Italy * DEVICE: Hiller corer (HILC) * COMMENT: No laminations. Local vegetation: raised bog. Area: 1.5 ha. raised bog, +Pinus+Betula, 60/100x150/200m.
	DOVJOK * LATITUDE: 48.750000 * LONGITUDE: 28.250000 * DATE/TIME: 1988-06-15T00:00:00 * LOCATION: Dovjok Swamp, Ukraine * DEVICE: Russian corer (RUSC) * COMMENT: No laminations. Local vegetation: Phragmites. Core diameter: 5 cm. Area: 2 ha. floodplain Phragmites fen. Physiography: floodplain in Murafa Basin. Surrounding vegetation: herb steppe, Quercus/Carpinus forest. Vegetation formation: Podolie steppe-forest.
	DOWELS * LATITUDE: 51.043611 * LONGITUDE: 0.828056 * ELEVATION: 0.0 m * LOCATION: The Dowels Walland marsh, United Kingdom
	DRUIM (boring1) * LATITUDE: 58.466667 * LONGITUDE: -4.700000 * DATE/TIME: 1973-08-15T00:00:00 * ELEVATION: 25.0 m * LOCATION: Lochan an Druim, United Kingdom * DEVICE: Livingstone borer (LIVB) * COMMENT: Local vegetation: Phragmites fen. Core diameter: 5 cm. Small lake. Physiography: in a shallow valley on limestone. Surrounding vegetation: grasslands, Juncus, Dryas-Carex heath.
	DRUZ2 (Profile1a) * LATITUDE: 54.116667 * LONGITUDE: 19.466667 * ELEVATION START: -1.0 m * ELEVATION END: 1.4 m * LOCATION: Jezioro Druzno, Poland * DEVICE: Russian sampler (RSAMP) * COMMENT: No laminations. Area: 2980 ha. Shallow lake.
	DUNUM (Core2) * LATITUDE: 53.583333 * LONGITUDE: 7.633333 * DATE/TIME: 1970-07-15T00:00:00 * ELEVATION: 5.0 m * LOCATION: Dunum, Germany * DEVICE: Metal boxes (MBOX) * COMMENT: center of kettle hole bog. Area: 1 ha. Meadow. Physiography: drained and sand covered raised bog. Surrounding vegetation: meadow.
	DURA (Dura-Moor) * LATITUDE: 46.640000 * LONGITUDE: 11.458889 * ELEVATION: 2080.0 m * LOCATION: Dura-Moor, Italy * DEVICE: Geonor corer (GEOC) * COMMENT: No laminations. Local vegetation: Cyperaceae mire. Core diameter: 5.4 cm. circular Cyperaceae mire. Physiography: filled-in small lake on upland plain. Surrounding vegetation: few Pinus cembra, Juniperus,dwarf shrubs. Vegetation formation: Picea, Pinus cembra, Larix.
	DURANK1 (CoreDI) * LATITUDE: 43.666667 * LONGITUDE: 28.550000 * DATE/TIME: 1974-08-15T00:00:00 * ELEVATION: 4.0 m * LOCATION: Lake Duranunlak, Bulgaria * DEVICE: Dachnowski corer (DACH) * COMMENT: lake existing now. Local vegetation: Phragmites communis, Typha latifolia. Core diameter: 2.5 cm. Area: 3.4 ha. Lake, brakish lagune origin. Physiography: lake close to the seashore. Surrounding vegetation: xeroterm herbaceous-steppe communities.
	DURANK2 (CoreDII) * LATITUDE: 43.666667 * LONGITUDE: 28.550000 * ELEVATION: 4.0 m * LOCATION: Lake Duranunlak, Bulgaria * DEVICE: Dachnowski corer (DACH) * COMMENT: Local vegetation: Phragmites communis, Typha latifolia. Core diameter: 2.5 cm. Area: 3.4 ha. Lake, brakish lagune origin. Physiography: lake close to the seashore. Surrounding vegetation: xeroterm herbaceous-steppe communities.
	DURY1 (CoreDury/98) * LATITUDE: 53.638889 * LONGITUDE: 18.358333 * DATE/TIME: 1998-06-30T00:00:00 * ELEVATION: 95.0 m * LOCATION: Dury, Poland * COMMENT: No laminations. Area: 2.54 ha. Mire with open water area,floating peat. Surrounding vegetation: pine forest.
	DVURANSO (SU-3-A) * LATITUDE: 48.791667 * LONGITUDE: 16.387500 * DATE/TIME: 1986-06-30T00:00:00 * ELEVATION: 179.0 m * LOCATION: Dvur Ansov, Czech Republic * COMMENT: Fen. Physiography: dyje river alluvium. Surrounding vegetation: Carpinion.
	E26 * LATITUDE: 42.833333 * LONGITUDE: 29.916667 * LOCATION: Black Sea, Bulgaria * COMMENT: West B.Sea:Transition to abyssal plain. Marine core from western continental slope of the Black Sea.
	EDESSA * LATITUDE: 40.818056 * LONGITUDE: 21.952500 * DATE/TIME: 1965-07-15T00:00:00 * ELEVATION: 350.0 m * LOCATION: Edessa, Greece * DEVICE: Dachnowski corer (DACH) * COMMENT: 2 km SE of Nision. Core diameter: 3.6 cm. Area: 2 ha. Marsh. Surrounding vegetation: Brushwood of deciduous oak.
	EGELSEE (Egelsee) * LATITUDE: 47.612500 * LONGITUDE: 12.170833 * ELEVATION START: 549.0 m * ELEVATION END: 0.3 m * LOCATION: Egelsee, Austria * DEVICE: Livingstone piston sampler (LPS) * COMMENT: No laminations. centre of lake. Local vegetation: Nymphaea, Nuphar. Core diameter: 3.5 cm. Area: 2.4 ha. Lake with paludified margins. Physiography: shallow depress. in valley with moraines. Surrounding vegetation: Picea-Abies-Fagus-Acer pseudopl. forest.
	EGGEN (EggenobBlatten) * LATITUDE: 46.221667 * LONGITUDE: 7.592500 * DATE/TIME: 1971-09-17T00:00:00 * ELEVATION: 1645.0 m * LOCATION: Eggen ob Blatten, Switzerland * DEVICE: Hiller corer (HILC) * COMMENT: No laminations. centre of basin, 20-40 m from moraine. filled-up natural lake. Physiography: glacial cirque of Aletschgletscher. Surrounding vegetation: meadows, some arable fields.
	EGR2A (EtangdelaGruèreEGr2A) * LATITUDE: 47.239722 * LONGITUDE: 7.049167 * ELEVATION START: 1005.0 m * ELEVATION END: 0.0 m * LOCATION: Etang de la Gruère, Switzerland * DEVICE: Livingstone piston corer (LPC) * COMMENT: No laminations. treeless area in centre of raised part. Core diameter: 8 cm. Area: 22.5 ha. ombrotrophic bog with Pinus uncinata.
	EINICH (Core2) * LATITUDE: 57.083333 * LONGITUDE: -3.800000 * DATE/TIME: 1966-06-15T00:00:00 * ELEVATION: 502.0 m * LOCATION: Loch Einich, United Kingdom * DEVICE: Spade (SPADE) * COMMENT: N end of Loch Einich. Local vegetation: Trichophoreto-EriophoretumErroded blanket bog. Physiography: valley floor. Surrounding vegetation: Trichophoreto-Eriophoretum.
	EMBOU (boringII) * LATITUDE: 43.566389 * LONGITUDE: 3.916667 * DATE/TIME: 1994-06-30T00:00:00 * ELEVATION: 1.0 m * LOCATION: Embouchac, France * DEVICE: Russian sampler (RSAMP) * COMMENT: 500 m at North of Méjean pond. Core diameter: 10 cm. Lagoon, delta of Lez river. Surrounding vegetation: Quercus ilex, Ericaceae, Cistaceae.
	ENNERIE * LATITUDE: 47.240278 * LONGITUDE: -2.000000 * ELEVATION: 2.0 m * LOCATION: Ennerie, France
	ERMISTU * LATITUDE: 58.366660 * LONGITUDE: 23.966660 * DATE/TIME: 1990-06-15T00:00:00 * ELEVATION: 17.0 m * Lake water depth: 1.45 m * LOCATION: Lake Ermistu, Estonia * DEVICE: Byelorussian sampler (BYES) * COMMENT: West side of the lake. Core diameter: 7 cm. Area: 480 ha. Lake with marginal fen. Physiography: depression between drumlins. Surrounding vegetation: n, W, S: peat bog. S: fields.
	ESPINASS * LATITUDE: 45.633333 * LONGITUDE: 2.883333 * ELEVATION: 1160.0 m * LOCATION: Narse dEspinasse, France * DEVICE: Russian sampler (RSAMP) * COMMENT: No laminations. Local vegetation: herbaceous and shrubeous vegetation. Area: 21 ha. circular peat. Physiography: basaltic maar crater. Surrounding vegetation: total anthropogenic vegetation. Vegetation formation: Montain level.
	ESTACAS (Core3) * LATITUDE: 43.121389 * LONGITUDE: -3.700556 * DATE/TIME: 1983-06-30T00:00:00 * ELEVATION: 1160.0 m * LOCATION: Puerto de las Estaces de Trueba, Spain * COMMENT: Purto de Estacas de Trubea. Area: 5 ha. Peat bog. Physiography: the peat is situated on Albienses sand. Surrounding vegetation: Ericaceae.
	ETANG * LATITUDE: 44.350000 * LONGITUDE: 5.233333 * DATE/TIME: 1986-06-15T00:00:00 * ELEVATION START: 92.0 m * ELEVATION END: 0.7 m * LOCATION: Le Grand Etang de Suze-La-Rousse, France * DEVICE: GES 10 (GES10) * COMMENT: Core diameter: 5 cm. Area: 30 ha. a field with corn. Physiography: a large gently undulating basin. Surrounding vegetation: small wood of Quercus ilex.
	ETPASM67 * LATITUDE: 49.696111 * LONGITUDE: -1.867222 * ELEVATION: 41.0 m * LOCATION: Etang paysan, France
	EZERIZ * LATITUDE: 55.850000 * LONGITUDE: 30.000000 * DATE/TIME: 1978-05-15T00:00:00 * ELEVATION START: 165.0 m * ELEVATION END: 4.2 m * LOCATION: Ezerisch, Belarus * DEVICE: Russian corer (RUSC) * COMMENT: North-west part of lake. Core diameter: 10 cm. Area: 1530 ha. Lake. Physiography: morainic upland, zone of late glaciation. Surrounding vegetation: cultivat landscape,Pinus-Betula,Picea.
	FADA * LATITUDE: 57.450000 * LONGITUDE: -6.200000 * ELEVATION: 135.0 m * LOCATION: Loch Fada, United Kingdom * DEVICE: Livingstone borer (LIVB) * COMMENT: Small loch with dam at the outflow. Physiography: located in a steep sided rock basin. Surrounding vegetation: mires, meadows and grasslands.
	FANGEAS * LATITUDE: 44.716111 * LONGITUDE: 6.449444 * ELEVATION: 2000.0 m * LOCATION: Fangeas, France
	FARSKE * LATITUDE: 56.166667 * LONGITUDE: 15.866667 * DATE/TIME: 1965-07-15T00:00:00 * ELEVATION START: 14.0 m * ELEVATION END: 2.9 m * LOCATION: Färshesjön, Sweden * DEVICE: Hiller sampler (HILS) * COMMENT: center. Core diameter: 4 cm. Area: 50 ha. Lake with rocky or sandy shore. Physiography: rocky hills and some moraine area. Surrounding vegetation: Quercus, Pinus, Fagus, Alnus-Rhamnus fen.
	FATE * LATITUDE: 44.266667 * LONGITUDE: 7.100000 * ELEVATION: 2130.0 m * LOCATION: Lago delle Fate, Italy * DEVICE: Russian corer (RUSC) * COMMENT: No laminations. western part of Anna di Vinadio Valley. Local vegetation: Cyperaceae, JuncaceaePeat bog. Physiography: valley composed by migmatite. Surrounding vegetation: N. strictae pastures. Vegetation formation: subalpine climate.
	FEL1 (Felchosee-1) * LATITUDE: 53.055090 * LONGITUDE: 14.129280 * DATE/TIME: 1996-01-05T00:00:00 * ELEVATION START: 10.0 m * ELEVATION END: -1.6 m * Recovery: 4.6 m * LOCATION: Germany * CAMPAIGN: ODER * BASIS: Sampling/drilling in lake * DEVICE: Piston corer (PC)
	FEL2 (Felchosee-2) * LATITUDE: 53.055090 * LONGITUDE: 14.129280 * DATE/TIME: 1996-01-10T00:00:00 * ELEVATION START: 10.0 m * ELEVATION END: -1.6 m * Recovery: 3.7 m * LOCATION: Germany * CAMPAIGN: ODER * BASIS: Sampling/drilling in lake * DEVICE: Eijkelkamp Kammerbohrer (EKB) (URI: https://en.eijkelkamp.com/products/water-bottom-sampling-equipment/sediment-core-sampler-type-beeker.html)
	FELDD2 (FeldD2) * LATITUDE: 46.393056 * LONGITUDE: 8.001389 * DATE/TIME: 1997-10-27T00:00:00 * ELEVATION START: 2130.0 m * ELEVATION END: 0.0 m * LOCATION: Feld Alp Holzmatten, Switzerland * COMMENT: No laminations. Local vegetation: fen. Physiography: glacial depression. Surrounding vegetation: heavily grazed alpine meadow. Vegetation formation: fen surrounded by pasture.
	FEUENRIE (Core1) * LATITUDE: 47.750000 * LONGITUDE: 8.916667 * DATE/TIME: 1984-06-15T00:00:00 * ELEVATION START: 407.0 m * ELEVATION END: 5.5 m * LOCATION: Feuenried, Germany * DEVICE: Russian peat sampler (RPS) * COMMENT: No laminations. center of the mire. Local vegetation: Magnocarion with Peucedanum palustre etc. Core diameter: 5 cm. Area: 6 ha. fen. Physiography: kettle hole. Surrounding vegetation: wetland forest belt arable field meadow. Vegetation formation: deciduous forest (beech forest).
	FJALLS * LATITUDE: 57.751667 * LONGITUDE: 12.861111 * DATE/TIME: 1975-07-15T00:00:00 * ELEVATION START: 285.0 m * ELEVATION END: 4.0 m * LOCATION: Fjallsjön 1, Sweden * DEVICE: Livingstone borer (LIVB) * COMMENT: 3 km south east of sandhult. Core diameter: 10 cm. a lake. Physiography: an upland plateau with low relief. Surrounding vegetation: surrounded by mire, pine and spruce.
	FJELLNAS * LATITUDE: 62.550000 * LONGITUDE: 12.166667 * ELEVATION: 780.0 m * LOCATION: Fjällnas, Sweden * COMMENT: Surrounding vegetation: adjacent uppermost tree limit, Betula.
	FLAATEVA * LATITUDE: 59.700000 * LONGITUDE: 6.166667 * DATE/TIME: 1984-06-15T00:00:00 * ELEVATION START: 570.0 m * ELEVATION END: 3.3 m * LOCATION: Flaatevatn, Norway * DEVICE: PVC tube (PVCT) * COMMENT: North-East side of lake Flaatevatn. Core diameter: 11 cm. Area: 0.05 ha. Limnogenic bog. Physiography: underlying bedrock (Phyllite + Quartz). Surrounding vegetation: subalpine birch forest rich in grasses.
	FLAJE (KiefernProfile) * LATITUDE: 50.700000 * LONGITUDE: 13.533333 * ELEVATION: 760.0 m * LOCATION: Flaje Kiefern, Czech Republic * COMMENT: No laminations. Local vegetation: peatLake. Physiography: Precambrian crystalline basin. Surrounding vegetation: meadows and pastures. Vegetation formation: mountain flora and vegatation.
	FLARKTOT (Core2) * LATITUDE: 58.583333 * LONGITUDE: 13.666667 * ELEVATION: 109.0 m * LOCATION: Lake Flarken, Sweden
	FLETNOWO * LATITUDE: 53.533333 * LONGITUDE: 18.650000 * DATE/TIME: 1964-04-15T00:00:00 * ELEVATION: 31.0 m * LOCATION: Fletnowo, Poland * DEVICE: Hiller corer (HILC) * COMMENT: central of the peat-bog. Core diameter: 4 cm. Area: 22 ha. Peat bog. Physiography: the north part of subglacial channel. Surrounding vegetation: fragments of pine forest, fields.
	FLOGELN5 (Core5) * LATITUDE: 53.666667 * LONGITUDE: 8.763889 * DATE/TIME: 1972-10-15T00:00:00 * ELEVATION START: 2.0 m * ELEVATION END: 5.7 m * LOCATION: Flögeln, Germany * DEVICE: Metal boxes (MBOX) * COMMENT: Pit close to the way. Core diameter: 4 cm. Area: 100 ha. Margin of Betula forest. Physiography: drained raised bog. Surrounding vegetation: Betula shrubs and trees.
	FLOGELN6 (Core6) * LATITUDE: 53.666667 * LONGITUDE: 8.763889 * DATE/TIME: 1973-10-15T00:00:00 * ELEVATION: 2.0 m * LOCATION: Flögeln, Germany * DEVICE: Sampling by hand (HAND) * COMMENT: At a ditch. Area: 100 ha. Margin of Betula forest. Physiography: drained raised bog. Surrounding vegetation: Betula shrubs and trees.
	FOFMOBS6 (CoreS6) * LATITUDE: 48.516667 * LONGITUDE: -1.000000 * DATE/TIME: 1989-06-30T00:00:00 * LOCATION: Mobeche Forest, France * COMMENT: 500 m from Mobeche forest. Core diameter: 10 cm. Cultivated vale. Physiography: vale. Surrounding vegetation: cultivated.
	FONTHENR * LATITUDE: 49.277500 * LONGITUDE: -0.453333 * ELEVATION: 20.0 m * LOCATION: Fontaine Henry, France
	FOUG2 (Core2) * LATITUDE: 47.366667 * LONGITUDE: -2.250000 * DATE/TIME: 1970-06-30T00:00:00 * ELEVATION START: 80.0 m * ELEVATION END: 0.0 m * LOCATION: Grande Brière, France * DEVICE: Russian corer (RUSC) * COMMENT: Large basin with hydrographic network. Physiography: the bottom of the basin is undulated. Surrounding vegetation: eu-Atlantic species.
	FOUGS223 (CoreS223) * LATITUDE: 48.516667 * LONGITUDE: -0.833333 * DATE/TIME: 1989-06-30T00:00:00 * LOCATION: Fougères, France * COMMENT: Core diameter: 10 cm. Vale with forest. Surrounding vegetation: forest.
	FOUGS707 (Core707) * LATITUDE: 48.516667 * LONGITUDE: -0.833333 * DATE/TIME: 1989-06-30T00:00:00 * LOCATION: Fougères, France * COMMENT: Forest. Core diameter: 10 cm. Vale with forest. Surrounding vegetation: forest.
	FOUGS942 (Core942) * LATITUDE: 48.516667 * LONGITUDE: -0.833333 * DATE/TIME: 1989-06-30T00:00:00 * LOCATION: Fougères, France * COMMENT: Core diameter: 10 cm. Vale with forest. Surrounding vegetation: forest.
	FOUGS948 (Core948) * LATITUDE: 48.516667 * LONGITUDE: -0.833333 * DATE/TIME: 1989-06-30T00:00:00 * LOCATION: Fougères, France * COMMENT: Core diameter: 10 cm. Vale with forest. Surrounding vegetation: forest.
	FOULA6B (Core6B) * LATITUDE: 60.150000 * LONGITUDE: -2.100000 * DATE/TIME: 1991-06-30T00:00:00 * ELEVATION: 170.0 m * LOCATION: Foula, United Kingdom * DEVICE: Wardenaar corer (WCOR) * COMMENT: Local vegetation: Sphagnum Eriophorum. Core diameter: 10 cm. Peat bog. Physiography: blanket bog. Surrounding vegetation: Treeless.
	FOURNEAU * LATITUDE: 48.444444 * LONGITUDE: -0.191667 * LOCATION: Le Fourneau, France
	FRANVILL * LATITUDE: 49.300000 * LONGITUDE: -0.266667 * ELEVATION: 5.0 m * LOCATION: Baie de Seine Franceville beach, France
	FRENGSTA * LATITUDE: 62.566667 * LONGITUDE: 10.133333 * DATE/TIME: 1980-06-15T00:00:00 * ELEVATION START: 790.0 m * ELEVATION END: 0.0 m * LOCATION: Frengstadsetra, Norway * DEVICE: Plastic pipe (PPIP) * COMMENT: central part of fen. Core diameter: 11 cm. Area: 2 ha. Slightly sloping and lime-rich fen. Physiography: micaschist bedrock. Surrounding vegetation: lime-rich fens and ridges, birch forests.
	FUKK1 * LATITUDE: 47.783333 * LONGITUDE: 13.266667 * ELEVATION: 663.0 m * LOCATION: Fuschlsee, Austria
	FULLY * LATITUDE: 46.176667 * LONGITUDE: 7.093611 * ELEVATION: 2135.0 m * LOCATION: Lac Superieur de Fully, Switzerland
	F_SENN3 (FranzSenn-Hütte) * LATITUDE: 47.352778 * LONGITUDE: 11.880000 * ELEVATION: 2115.0 m * LOCATION: Franz Senn-Hütte, Austria * DEVICE: Geonor corer (GEOC) * COMMENT: No laminations. ca. 150 m S of Franz Senn-Hütte. Core diameter: 5.4 cm. Mire between small round hills. Physiography: upper valley near glacier,within moraine. Vegetation formation: subalpine shrub zone.
	G89 (G1/89) * LATITUDE: 52.319444 * LONGITUDE: 17.363333 * DATE/TIME: 1989-07-15T00:00:00 * ELEVATION: 100.0 m * LOCATION: Giecz, Poland * DEVICE: Instorf corer (INSC) * COMMENT: 35m east from the embankment. Core diameter: 10 cm. Area: 2 ha. Dried lake. Physiography: flat area between river and embarkment. Surrounding vegetation: sedges and herbes.
	GAENSEMO (Gänsemoos) * LATITUDE: 46.500278 * LONGITUDE: 7.212222 * DATE/TIME: 1962-10-27T00:00:00 * ELEVATION: 795.0 m * LOCATION: Gänsemoos, Schwarzenburg, Switzerland * DEVICE: Hiller corer (HILC) * COMMENT: No laminations. Local vegetation: raised-bog vegetationpartly reclaimed raised bog. Physiography: ObereMeeresmolasse, Miocene.
	GAGRA (CoreGa) * LATITUDE: 43.283333 * LONGITUDE: 40.266667 * DATE/TIME: 1982-06-30T00:00:00 * ELEVATION START: 4.0 m * ELEVATION END: 0.3 m * LOCATION: Gagra, Georgia * DEVICE: Spade (SPADE) * COMMENT: Left coast of river Kolkhidka. Area: 0.4 ha. Marine terrace. Physiography: River month Kolkhidka. Surrounding vegetation: Anthropogenic.
	GALDANA * LATITUDE: 39.936944 * LONGITUDE: 3.965000 * DATE/TIME: 1994-06-30T00:00:00 * LOCATION: Cala Galdana, Spain * COMMENT: Sea coast. Surrounding vegetation: Quercus ilex, Olea, Prasium, Euphorbia.
	GALINI * LATITUDE: 35.100000 * LONGITUDE: 24.683333 * DATE/TIME: 1971-06-30T00:00:00 * ELEVATION START: 0.0 m * ELEVATION END: 0.0 m * LOCATION: Aghia Galini, Greece * COMMENT: Left bank of the Platys River. Core diameter: 10 cm.
	GALTSJ * LATITUDE: 56.216667 * LONGITUDE: 15.216667 * DATE/TIME: 1977-06-30T00:00:00 * ELEVATION START: 32.0 m * ELEVATION END: 5.0 m * LOCATION: Galtsjön, Sweden * DEVICE: Livingstone borer (LIVB) * COMMENT: Core diameter: 10 cm. a smallish lake. Physiography: in a hilly area of rock exposures + till. Surrounding vegetation: mainly spruce and pine.
	GAMPERF (Gamperfin25A) * LATITUDE: 47.101389 * LONGITUDE: 9.225000 * ELEVATION: 1320.0 m * LOCATION: Gamperfin, Switzerland * DEVICE: Piston corer Streif/Merkt (PC_SM) * COMMENT: No laminations. Area: 10 ha. sloping mire.
	GANNA (LagodiGanna) * LATITUDE: 45.535000 * LONGITUDE: 8.493889 * DATE/TIME: 1991-06-26T00:00:00 * ELEVATION START: 452.0 m * ELEVATION END: 0.0 m * LOCATION: Lago di Ganna, Italy * DEVICE: HON-Kajak sediment corer (HONK) (URI: doi:10.1007/BF00153740) * COMMENT: No laminations. deepest part of lake. Local vegetation: open water. Core diameter: 6 cm. Area: 6 ha.
	GAR1 * LATITUDE: 44.116944 * LONGITUDE: 26.950000 * DATE/TIME: 1984-09-15T00:00:00 * ELEVATION START: 20.0 m * ELEVATION END: 3.6 m * LOCATION: Mire Garvan, Bulgaria * DEVICE: Dachnowski corer (DACH) * COMMENT: Southwestern part of the mire. Core diameter: 2 cm. Area: 200 ha. Mire with open water area. Physiography: on the terrace of Danube river. Surrounding vegetation: mixed oak forests.
	GATIMORT * LATITUDE: 43.575278 * LONGITUDE: 2.785556 * ELEVATION: 970.0 m * LOCATION: Tourbière de Gatimort, France
	GATTEMAR * LATITUDE: 49.692778 * LONGITUDE: -1.298056 * ELEVATION: 1.0 m * LOCATION: Anse de Gattemare, France
	GB4 (Core1) * LATITUDE: 56.384444 * LONGITUDE: -5.501389 * ELEVATION: 70.0 m * LOCATION: Gallanech Beg, United Kingdom
	GDU (Core1) * LATITUDE: 47.783333 * LONGITUDE: 8.983333 * DATE/TIME: 1984-06-30T00:00:00 * ELEVATION START: 432.0 m * ELEVATION END: 10.0 m * LOCATION: Durchenbergried, Germany * DEVICE: Piston corer Streif/Merkt (PC_SM) * COMMENT: No laminations. center of the mire. Local vegetation: Sphagnetum magellanici/Caricetum lasioc. Core diameter: 5 cm. Area: 1.2 ha. fen. Physiography: kettle hole. Surrounding vegetation: wetland forest belt, fields and meadows. Vegetation formation: decidious forest (beech forest).
	GEFONTE4 * LATITUDE: 49.365000 * LONGITUDE: -1.083333 * ELEVATION: 12.0 m * LOCATION: Geffosse Fontenay, France
	GELMT * LATITUDE: 49.666667 * LONGITUDE: 31.833333 * DATE/TIME: 1978-08-15T00:00:00 * ELEVATION START: 120.0 m * ELEVATION END: 4.2 m * LOCATION: Gelmyazevskoye, Ukraine * DEVICE: Hiller corer (HILC) * COMMENT: Centre of the bog. Core diameter: 5 cm. Area: 150 ha. Fen bog. Surrounding vegetation: Forests and meadow steppes.
	GEORGENF (Core1) * LATITUDE: 50.750000 * LONGITUDE: 13.750000 * ELEVATION: 860.0 m * LOCATION: Georgenfelder Hochmoor, Germany * COMMENT: No laminations.
	GERLOS (Gerlos) * LATITUDE: 47.243056 * LONGITUDE: 12.138889 * ELEVATION: 1590.0 m * LOCATION: Gerlos, Austria * DEVICE: Geonor corer (GEOC) * COMMENT: No laminations. N of the Gerlosstrasse road. Core diameter: 5.4 cm. Raised bog.
	GERZEN (Gerzensee) * LATITUDE: 46.495000 * LONGITUDE: 7.324722 * DATE/TIME: 1992-07-03T00:00:00 * ELEVATION START: 603.0 m * ELEVATION END: 0.1 m * LOCATION: Gerzensee, Switzerland * DEVICE: HON-Kajak sediment corer (HONK) (URI: doi:10.1007/BF00153740) * COMMENT: No laminations. deepest part of lake. Local vegetation: open water. Core diameter: 6 cm. Area: 27 ha.
	GHOBHAIN * LATITUDE: 57.183333 * LONGITUDE: -6.300000 * DATE/TIME: 1968-06-30T00:00:00 * ELEVATION: 82.0 m * LOCATION: Lochan coir a Ghobhainn, United Kingdom * DEVICE: Livingstone borer (LIVB) * COMMENT: Small lochan. Physiography: within an area of hummocky moraine. Surrounding vegetation: Molinieto-Callunetum bog.
	GIANNITB * LATITUDE: 40.666667 * LONGITUDE: 22.316667 * DATE/TIME: 1965-06-15T00:00:00 * ELEVATION: 20.0 m * LOCATION: Giannitsa, Greece * DEVICE: Dachnowski corer (DACH) * COMMENT: Along road in Plain of Macedonia. Core diameter: 3.6 cm. Area: 0.25 ha. Small lot in cultivated plain. Physiography: estuarium/river delta. Surrounding vegetation: cultivated tobacco etc.
	GIERING (Giering) * LATITUDE: 47.471389 * LONGITUDE: 12.358333 * ELEVATION: 820.0 m * LOCATION: Giering, Austria * DEVICE: Geonor corer (GEOC) * COMMENT: No laminations. Local vegetation: disturbed raised-bog vegetation. Core diameter: 5.4 cm. intact raised bog,some marginal drainage. Physiography: subsoil of Würm moraine. Surrounding vegetation: Abies-Picea forest, arable fields. Vegetation formation: Abies-Picea, Abieti-Fagetum myrtilletosum.
	GIORGIO (MonteSanGiorgioS1) * LATITUDE: 45.908889 * LONGITUDE: 8.953889 * DATE/TIME: 1991-12-05T00:00:00 * ELEVATION START: 990.0 m * ELEVATION END: 0.0 m * LOCATION: Monte San Giorgio, Switzerland * DEVICE: HON-Kajak sediment corer (HONK) (URI: doi:10.1007/BF00153740) * COMMENT: No laminations. soil profile between stones. Local vegetation: Grassland. Area: 0.5 ha.
	GKSA (Großer Krebssee) * LATITUDE: 52.846590 * LONGITUDE: 14.099320 * DATE/TIME: 1997-10-17T00:00:00 * ELEVATION START: 5.0 m * ELEVATION END: -7.0 m * Recovery: 9.7 m * LOCATION: Germany * CAMPAIGN: ODER * BASIS: Sampling/drilling in lake * DEVICE: Usinger Piston Corer (UPC)
	GLEBOCZ (CoreGl1/91) * LATITUDE: 52.649160 * LONGITUDE: 17.633050 * DATE/TIME: 1991-06-30T00:00:00 * ELEVATION: 95.0 m * Lake water depth: 9.35 m * LOCATION: Gleboczek Lake, Poland * DEVICE: Livingstone piston corer (LPC) * COMMENT: No laminations. center of lake. Local vegetation: open water. Core diameter: 5 cm. Area: 12.5 ha. euthropic lake located in forest complex. Physiography: outwash plain. Surrounding vegetation: pine forest. Vegetation formation: formation of deciduous and mixed forests.
	GLUBELKA * LATITUDE: 54.950000 * LONGITUDE: 26.416660 * DATE/TIME: 1971-09-15T00:00:00 * ELEVATION: 166.0 m * Lake water depth: 3.7 m * LOCATION: Lake Glubelka, Belarus * DEVICE: Russian corer (RUSC) * COMMENT: Northern part of the lake. Core diameter: 10 cm. Area: 9 ha. Lake. Physiography: hilly landscape. Surrounding vegetation: cultivated area.
	GLUBOKOE * LATITUDE: 61.066667 * LONGITUDE: 36.050000 * DATE/TIME: 1978-06-30T00:00:00 * ELEVATION: 50.0 m * LOCATION: Glubokoe, Russia * DEVICE: Russian sampler (RSAMP) * COMMENT: center of mire. Core diameter: 4 cm. Area: 122 ha. Mire. Physiography: lake plain. Surrounding vegetation: Picea.
	GODZISZ (CoreGO) * LATITUDE: 54.093333 * LONGITUDE: 18.552778 * ELEVATION: 71.0 m * LOCATION: Godziszewskie Lake, Poland * COMMENT: No laminations. Area: 169.4 ha. eutrophic, channel lake.
	GOLHISH * LATITUDE: 37.133333 * LONGITUDE: 29.600000 * LOCATION: Gölhisar Gölü, Turkey
	GONDO (Gondo-Alpjen2) * LATITUDE: 46.124167 * LONGITUDE: 8.064722 * DATE/TIME: 1964-09-05T00:00:00 * ELEVATION: 1635.0 m * LOCATION: Gondo Alpjen, Switzerland * DEVICE: Hiller corer (HILC) * COMMENT: No laminations. 20 m N of the hut at E side of depression. Local vegetation: wet supalpine hay-field vegetation. Area: 8 ha. filled-up natural lake. Physiography: depression behind deposit by stream.
	GORNO61 * LATITUDE: 50.850000 * LONGITUDE: 20.833333 * DATE/TIME: 1958-08-21T00:00:00 * ELEVATION: 240.0 m * LOCATION: Gorno, Poland * DEVICE: Hiller sampler (HILS) * COMMENT: center of the fen. Local vegetation: Meadow with Alnus and Betula shrubs. Area: 0.6 ha. Peat bog in an oblong depression. Surrounding vegetation: cultivated fields.
	GORSFAWR * LATITUDE: 51.931667 * LONGITUDE: -4.718333 * DATE/TIME: 2005-06-15T00:00:00 * ELEVATION START: 190.0 m * ELEVATION END: 3.5 m * LOCATION: Gors Fawr Bog, United Kingdom * DEVICE: Russian corer (RUSC) * COMMENT: No laminations. south of Preseli Hills. Area: 0.3 ha. kettle hole, small steep-sides mire. Physiography: Pingo. Surrounding vegetation: woodland.
	GOSCI187 (ProfileG1/87) * LATITUDE: 52.583330 * LONGITUDE: 19.350000 * ELEVATION: 64.0 m * Lake water depth: 24.6 m * LOCATION: Lake Gosciaz, Polen * COMMENT: Laminated. center of lake. Local vegetation: Phragmit, Lemnetea, Potamogeton, Magnocaric. Area: 70.4 ha. Lake. Physiography: dimitric lake of glacial origin. Surrounding vegetation: peatbog with forest area.
	GOTNAVOL * LATITUDE: 62.200000 * LONGITUDE: 33.800000 * DATE/TIME: 1978-06-30T00:00:00 * ELEVATION: 110.0 m * LOCATION: Gotnavolok, Russia * DEVICE: Russian sampler (RSAMP) * COMMENT: center of mire. Core diameter: 4 cm. Area: 10 ha. Mire. Physiography: ridge denudational-tectonic relief. Surrounding vegetation: Pinus, Picea.
	GRADEN1 * LATITUDE: 47.965278 * LONGITUDE: 12.808333 * ELEVATION: 1920.0 m * LOCATION: Gradenmoos, Austria
	GRAECHEN (Grächen-See) * LATITUDE: 46.115000 * LONGITUDE: 7.504444 * DATE/TIME: 1973-07-21T00:00:00 * ELEVATION: 1710.0 m * LOCATION: Grächen See, Switzerland * DEVICE: Hiller corer (HILC) * COMMENT: No laminations. Carex fusca floating mire. natural lake, partly filled-up. Surrounding vegetation: meadows, cereal fields. Vegetation formation: subalpine La-P.cemb-Pic-P.sylv-Aln-P.mug.
	GRASVATN * LATITUDE: 63.700000 * LONGITUDE: 8.700000 * DATE/TIME: 1978-05-15T00:00:00 * ELEVATION START: 45.0 m * ELEVATION END: 0.2 m * LOCATION: Grasvatn, Norway * DEVICE: Russian corer (RUSC) * COMMENT: SE side of lake. Local vegetation: Aquatics (nympheaides). Core diameter: 7.5 cm. Area: 1.5 ha. Shallow lake overgrown by aquatics. Physiography: Shellsand on gneisses. Surrounding vegetation: Heather, fens and bogs.
	GREICH2 (Greicheralp) * LATITUDE: 46.224722 * LONGITUDE: 8.014722 * DATE/TIME: 1956-09-17T00:00:00 * ELEVATION: 1910.0 m * LOCATION: Greicheralp, Riederalp, Switzerland * DEVICE: Hiller corer (HILC) * COMMENT: No laminations. Local vegetation: meadowfilled-up depression. Physiography: tectonic depression behind moraine. Surrounding vegetation: meadow.
	GRETSKOE * LATITUDE: 55.633333 * LONGITUDE: 27.766667 * DATE/TIME: 1980-07-15T00:00:00 * ELEVATION START: 134.0 m * ELEVATION END: 4.8 m * LOCATION: Gretskoe, Belarus * DEVICE: Russian corer (RUSC) * COMMENT: Westen part of lake (sublitoral). Core diameter: 10 cm. Area: 450 ha. Lake. Physiography: fluvio glacial plaine. Surrounding vegetation: Alnus, Pinus, Betula.
	GRINDJI (Grindjisee) * LATITUDE: 46.004444 * LONGITUDE: 7.473056 * DATE/TIME: 1991-08-05T00:00:00 * ELEVATION START: 2334.0 m * ELEVATION END: 0.0 m * LOCATION: Grindjisee, Switzerland * DEVICE: HON-Kajak sediment corer (HONK) (URI: doi:10.1007/BF00153740) * COMMENT: No laminations. deepest part of lake. Local vegetation: open water. Core diameter: 6 cm. Area: 1 ha.
	GRUERE (EtangdelaGruère) * LATITUDE: 47.239722 * LONGITUDE: 7.049167 * DATE/TIME: 1991-08-26T00:00:00 * ELEVATION: 1005.0 m * LOCATION: Etang de la Gruère, Switzerland * DEVICE: Wardenaar corer (WCOR) * COMMENT: No laminations. as core 16 of Joray (1942). Local vegetation: raised-bog vegetation. Core diameter: 10 cm. Area: 22.5 ha. ombrotrophic bog with Pinus uncinata.
	GRUNSEE (Grünsee) * LATITUDE: 46.515000 * LONGITUDE: 10.285278 * DATE/TIME: 1963-09-21T00:00:00 * ELEVATION: 1836.0 m * LOCATION: Grünsee, Reschenscheideck, Italy * DEVICE: Hiller corer (HILC) * COMMENT: No laminations. peat 30 m from shore, 30 m from N-exp.slope. Local vegetation: Schoen.f., Trich.2spp., Erioph.lat., Cx.di.Lake with adjacent mire. Physiography: limestone area. Surrounding vegetation: forest, mire, open water. Vegetation formation: sub-alpine Picea forest.
	GUTT * LATITUDE: 50.266667 * LONGITUDE: 26.833333 * DATE/TIME: 1976-07-15T00:00:00 * ELEVATION START: 210.0 m * ELEVATION END: 6.2 m * LOCATION: Nowy Gutiski, Ukraine * DEVICE: Hiller borer (HILB) * COMMENT: Eastern side of the bog. Core diameter: 5 cm. Area: 503 ha. Fen bog. Surrounding vegetation: forests.
	GWA1 * LATITUDE: 48.426667 * LONGITUDE: 8.249167 * ELEVATION: 839.0 m * LOCATION: Glaswaldsee, Germany
	HAGELSEE (Hagelseeli-1) * LATITUDE: 46.402500 * LONGITUDE: 8.021111 * DATE/TIME: 1996-05-05T00:00:00 * ELEVATION: 2339.0 m * LOCATION: Hagelseeli, Switzerland * DEVICE: HON-Kajak sediment corer (HONK) (URI: doi:10.1007/BF00153740) * COMMENT: No laminations. Local vegetation: open water. Area: 2.5 ha.
	HALOS * LATITUDE: 39.166667 * LONGITUDE: 22.833333 * DATE/TIME: 1979-06-30T00:00:00 * ELEVATION: 0.0 m * LOCATION: Halos I, Greece * COMMENT: Pagasitic Gulf, 7 km NW of Sourpi.
	HALSEG * LATITUDE: 56.545833 * LONGITUDE: 14.605556 * ELEVATION START: 142.0 m * ELEVATION END: 1.6 m * LOCATION: Hälsegyl, Sweden * DEVICE: Russian corer (RUSC) * COMMENT: Small lake, probably in a kettle hole. Physiography: in hummocky morraine. Surrounding vegetation: mainly spruce.
	HANGSTLI (Hängstli) * LATITUDE: 46.473611 * LONGITUDE: 7.495833 * DATE/TIME: 1967-08-07T00:00:00 * ELEVATION: 1260.0 m * LOCATION: Hängstli, Switzerland * DEVICE: Hiller corer (HILC) * COMMENT: No laminations. Raised bog in rather good condition. Physiography: moraine landscape.
	HASENM (Hasenmoos) * LATITUDE: 47.473889 * LONGITUDE: 12.377222 * ELEVATION: 770.0 m * LOCATION: Hasenmoos, Austria * DEVICE: Geonor corer (GEOC) * COMMENT: No laminations. Local vegetation: grasses on cut peat. Core diameter: 5.4 cm. upper peat layers cut. Physiography: subsoil of Würm moraine. Surrounding vegetation: Abies-Picea forest, arable fields. Vegetation formation: Abies-Picea, Abieti-Fagetum myrtilletosum.
	HAWKS-3 (3) * LATITUDE: 50.533333 * LONGITUDE: -4.600000 * DATE/TIME: 1971-06-30T00:00:00 * ELEVATION: 229.0 m * LOCATION: Hawks Tor, United Kingdom * COMMENT: Formerly a china clay pit. Physiography: blanket bog over kaolin deposits. Surrounding vegetation: blanke bog.
	HENSP (Core2) * LATITUDE: 54.433333 * LONGITUDE: -5.900000 * DATE/TIME: 1985-10-15T00:00:00 * ELEVATION START: 25.0 m * ELEVATION END: 9.0 m * LOCATION: Lough Henney, United Kingdom * DEVICE: Piston corer (PC) * COMMENT: Centre of lake. Core diameter: 6.3 cm. Area: 94 ha. Interdrumlin lake. Physiography: quaternary drumlins throughout region. Surrounding vegetation: small fields enclosed by Crataegus hedge.
	HILAIRE2 (S2) * LATITUDE: 45.145833 * LONGITUDE: 5.316667 * DATE/TIME: 1981-06-15T00:00:00 * ELEVATION: 190.0 m * LOCATION: Saint Hilaire du Rosier, France * COMMENT: No laminations. 70 m from the Est. Local vegetation: Phragmite. Core diameter: 8 cm. Area: 0.5 ha. Marsh. Physiography: glacial-river terrace (Isère). Surrounding vegetation: Quercus, Rhamnus, Coticus, Buxus.
	HINTERB (Hinterburgseeli) * LATITUDE: 46.430556 * LONGITUDE: 8.040556 * ELEVATION: 1510.0 m * LOCATION: Hinterburgseeli, Switzerland
	HIPPER (HipperSick) * LATITUDE: 53.216667 * LONGITUDE: 1.583333 * DATE/TIME: 1968-03-12T00:00:00 * ELEVATION: 1050.0 m * LOCATION: Hipper Sick, United Kingdom * DEVICE: Monolith boxes (MONOB) * COMMENT: No laminations. Local vegetation: Calluna/Eriophorum peat. Surrounding vegetation: Calluna.
	HIRVILAM (Core1) * LATITUDE: 60.625000 * LONGITUDE: 24.250000 * DATE/TIME: 1985-06-30T00:00:00 * ELEVATION START: 114.0 m * ELEVATION END: 3.4 m * LOCATION: Hirvilampi, Finland * DEVICE: Livingstone corer (LIVC) * COMMENT: In the middle of the lake. Core diameter: 5 cm. Area: 2 ha. Lake with marginal fen. Physiography: moraine. Surrounding vegetation: Picea forest.
	HMS * LATITUDE: 51.051944 * LONGITUDE: 0.826667 * ELEVATION: 0.0 m * LOCATION: Horsemarsh Sewer, United Kingdom
	HOB (Core1) * LATITUDE: 47.700000 * LONGITUDE: 9.016667 * DATE/TIME: 1986-06-30T00:00:00 * ELEVATION START: 385.0 m * ELEVATION END: 16.5 m * LOCATION: Hornstaad, Germany * DEVICE: Piston corer Streif/Merkt (PC_SM) * COMMENT: No laminations. center of the mire shallow water of Bode. Local vegetation: Potamogetonion (submerse water plants). Core diameter: 5 cm. Area: 10000 ha. Lake. Physiography: main finger lake of the Rhine glacier. Surrounding vegetation: small wetland forest belt, field meadows. Vegetation formation: deciduous forest (beech forest).
	HOCKHAM * LATITUDE: 52.500000 * LONGITUDE: 0.833333 * DATE/TIME: 1979-06-30T00:00:00 * ELEVATION START: 33.0 m * ELEVATION END: 0.4 m * LOCATION: Hockham Mere, United Kingdom * DEVICE: Livingstone borer (LIVB) * COMMENT: Core diameter: 5 cm. Area: 56 ha. Alder carr with an area of peats. Physiography: solution hollow beneath till (sands). Surrounding vegetation: alder carr.
	HOLT * LATITUDE: 60.650000 * LONGITUDE: 14.916667 * DATE/TIME: 2000-06-15T00:00:00 * ELEVATION START: 232.0 m * ELEVATION END: 7.0 m * LOCATION: Holtjärnen, Sweden * DEVICE: Livingstone piston corer (LPC) * COMMENT: No laminations. deepest part of the lake. Area: 1 ha. kettle lake. Physiography: depression. Surrounding vegetation: Pinus sylvestris, Picea abies, Betula sp. Vegetation formation: southern boreal Forest.
	HOPEFARM * LATITUDE: 51.017778 * LONGITUDE: 0.835556 * ELEVATION: 2.0 m * LOCATION: Hope farm Walland marsh, United Kingdom
	HOPSCHEN (Hopschensee) * LATITUDE: 46.151111 * LONGITUDE: 8.012222 * DATE/TIME: 1962-10-15T00:00:00 * ELEVATION: 2017.0 m * LOCATION: Hopschensee, Switzerland * DEVICE: Hiller corer (HILC) * COMMENT: No laminations. lower shore-terrace, 18m W from dry slope. Area: 1 ha. Lake, dead-ice depression?. Physiography: within last glaciation.
	HOPSEIDT (Core1) * LATITUDE: 70.833330 * LONGITUDE: 27.716660 * DATE/TIME: 1993-05-21T00:00:00 * ELEVATION: 225.0 m * Lake water depth: 7.05 m * LOCATION: Lake Hopseidet, Norway * DEVICE: Russian peat sampler (RPS) * COMMENT: Core diameter: 10 cm. Area: 9 ha. Lake. Physiography: smooth topography. Surrounding vegetation: treeless tundra.
	HOPSTOP (Hopschensee(top)) * LATITUDE: 46.151111 * LONGITUDE: 8.012222 * DATE/TIME: 1994-08-30T00:00:00 * ELEVATION: 2017.0 m * LOCATION: Hopschensee, Switzerland * DEVICE: Sampling by hand (HAND) * COMMENT: No laminations. lake. Local vegetation: open water. Area: 1 ha. Lake, dead-ice depression?. Physiography: within last glaciation.
	HOYRAN * LATITUDE: 38.275000 * LONGITUDE: 30.875000 * DATE/TIME: 1974-06-15T00:00:00 * ELEVATION START: 920.0 m * ELEVATION END: 0.0 m * LOCATION: Hoyran Gölü, Turkey * DEVICE: Dachnowski corer (DACH) * COMMENT: SW Turkey, 3 km SE of Asagikasikara. Local vegetation: Butomus, Scirpus, Mentha, Phragmites. Core diameter: 3.6 cm. Lake shore, marsh. Surrounding vegetation: tree-less, grazed meadow.
	HTIMONER * LATITUDE: 39.875000 * LONGITUDE: 4.126389 * DATE/TIME: 1994-06-30T00:00:00 * ELEVATION START: 40.0 m * ELEVATION END: 9.0 m * LOCATION: Hort Timoner, Spain * DEVICE: Industrial corer (INDC) * COMMENT: Marshlands. South coast of Minorca Island. Surrounding vegetation: Quercus ilex.
	HUZ2 * LATITUDE: 48.574444 * LONGITUDE: 8.348056 * ELEVATION: 747.0 m * LOCATION: Huzenbacher See, Germany
	IFJORD (Core1) * LATITUDE: 70.433330 * LONGITUDE: 27.633330 * DATE/TIME: 1993-05-23T00:00:00 * ELEVATION: 317.0 m * Lake water depth: 5.35 m * LOCATION: Lake Ifjord, Norway * DEVICE: Russian corer (RUSC) * COMMENT: Core diameter: 10 cm. Area: 10 ha. Physiography: bowl-shaped basin. Surrounding vegetation: treeless, alpine.
	ILMEN (CoreN1) * LATITUDE: 58.300000 * LONGITUDE: 31.233330 * DATE/TIME: 1990-07-20T00:00:00 * ELEVATION: 18.0 m * Lake water depth: 3.44 m * LOCATION: Ilmen Lake, Russia * DEVICE: Pneumatic-vacuum tube (PVTUB) * COMMENT: center of lake. Core diameter: 7 cm. Area: 120000 ha. Large lake lies in Devonian depression. Physiography: glacial, lake-glacial and lake deposits. Surrounding vegetation: pine-birch forest.
	IMATU * LATITUDE: 59.133333 * LONGITUDE: 27.433333 * ELEVATION START: 45.0 m * ELEVATION END: 0.0 m * LOCATION: Imatu Mire, Estonia * DEVICE: Russian corer (RUSC) * COMMENT: Overgrown southern part of lake Imatu. Core diameter: 10 cm. Area: 150 ha. Mire, formerly an overgrown lake. Physiography: between ancient (DR3?) dunes. Surrounding vegetation: Pinus, Betula, Alnus, Picea forest.
	IOAN249 (Core249) * LATITUDE: 39.650000 * LONGITUDE: 20.916667 * ELEVATION: 470.0 m * LOCATION: Ioannina II, Greece * COMMENT: Southeast of lake Pamvotis near Kastrits. Area: 22.8 ha. Lake. Surrounding vegetation: cultivated plain.
	IOANNINA * LATITUDE: 39.762500 * LONGITUDE: 20.730556 * DATE/TIME: 1965-08-15T00:00:00 * ELEVATION: 470.0 m * LOCATION: Ioannina I, Greece * DEVICE: Dachnowski corer (DACH) * COMMENT: 2 km north of Kato Lapsisto. Core diameter: 3.6 cm. Area: 2000 ha. Marshland and cultured land. Physiography: valley fill. Surrounding vegetation: submediterranean forest.
	IOSIPOVO * LATITUDE: 51.200000 * LONGITUDE: 28.000000 * DATE/TIME: 1985-06-30T00:00:00 * ELEVATION START: 8.0 m * ELEVATION END: 1.2 m * LOCATION: Iosipovo, Ukraine * DEVICE: Borer (BOR) * COMMENT: central part of moor. Local vegetation: Pinus sylvestris, Betula pubescens, Ledum. Core diameter: 5 cm. Mezotrophic moor. Physiography: the left bank of the Bolotitsa.
	ISOKARR (Core3) * LATITUDE: 60.216667 * LONGITUDE: 22.133333 * DATE/TIME: 1985-05-15T00:00:00 * ELEVATION START: 16.0 m * ELEVATION END: 1.5 m * LOCATION: Isokärret, Finland * DEVICE: Metal boxes (MBOX) * COMMENT: middle of the mire. Core diameter: 5 cm. Young mire, former lake. Physiography: Sphagnum peat bog. Surrounding vegetation: Betula/Pinus (50/50%), Menyanthes.
	IVAN3 (Profile3) * LATITUDE: 56.816667 * LONGITUDE: 38.766667 * DATE/TIME: 1986-06-30T00:00:00 * ELEVATION: 141.0 m * LOCATION: Ivanovskoye Peat Bog, Russia * COMMENT: south-east side of the bog. Area: 1200 ha. Peat bog. Physiography: periglacial lake of middle Pleistocene. Surrounding vegetation: birch-pine forest and Carex assosiations.
	IVAN4 (Profile4) * LATITUDE: 56.816667 * LONGITUDE: 38.766667 * DATE/TIME: 1986-06-30T00:00:00 * ELEVATION: 141.0 m * LOCATION: Ivanovskoye Peat Bog, Russia * COMMENT: South-east side of the bog. Area: 1200 ha. Peat bog. Physiography: periglacial lake of middle Pleistocene. Surrounding vegetation: birch-pine forest and Carex assosiations.
	IVAN5 (Profile5) * LATITUDE: 56.816667 * LONGITUDE: 38.766667 * DATE/TIME: 1988-06-30T00:00:00 * ELEVATION: 141.0 m * LOCATION: Ivanovskoye Peat Bog, Russia * COMMENT: South-west side of the bog. Area: 1200 ha. Peat bog. Physiography: periglacial lake of middle Pleistocene. Surrounding vegetation: birch-pine forest and Carex assosiations.
	JAMMERTA (Jammertal) * LATITUDE: 48.100000 * LONGITUDE: 9.728889 * DATE/TIME: 1997-06-30T00:00:00 * ELEVATION: 578.0 m * LOCATION: Jammertal, Germany * COMMENT: No laminations. center of the basin. Local vegetation: fen peat. Physiography: subglacial basin bordered by moraines.
	JAN (LK-4-A) * LATITUDE: 49.041667 * LONGITUDE: 19.677778 * DATE/TIME: 1982-09-15T00:00:00 * ELEVATION: 660.0 m * LOCATION: Liptovsky Jan, Slovakia * DEVICE: Monolith boxes (10x10 cm) (MONOBS) * COMMENT: central, deepest part. Area: 15 ha. Slightly sloping minerotrophic fen. Physiography: mountain valley. Surrounding vegetation: beech and fir-beech, Alnus incana.
	JANCONT (Core2) * LATITUDE: 49.041667 * LONGITUDE: 19.677778 * DATE/TIME: 1982-09-15T00:00:00 * ELEVATION: 660.0 m * LOCATION: Liptovsky Jan, Slovakia * DEVICE: Russian corer (RUSC) * COMMENT: central, deepest part. Core diameter: 5 cm. Area: 15 ha. Slightly sloping minerotrophic fen. Physiography: mountain valley. Surrounding vegetation: beech and fir-beech, Alnus incana.
	JARVEOTS (Core14) * LATITUDE: 59.033330 * LONGITUDE: 24.283330 * DATE/TIME: 1990-07-15T00:00:00 * ELEVATION: 42.0 m * Lake water depth: 8.5 m * LOCATION: Lake Jarveotsa, Estonia * DEVICE: Russian peat corer (RPC) * COMMENT: central part of the lake. Local vegetation: Phragmites, Carex, Typha (littoral belt). Core diameter: 7 cm. Area: 16.9 ha. Lake with narrow floating math. Physiography: between eskers. Surrounding vegetation: spruce and pine, Betula.
	JASIEL81 * LATITUDE: 49.372778 * LONGITUDE: 21.886944 * DATE/TIME: 1981-06-30T00:00:00 * ELEVATION START: 680.0 m * ELEVATION END: 0.0 m * LOCATION: Jasiel, Poland * DEVICE: Instorf sampler (INSS) * COMMENT: 60 m from N edge, 10 m W drainage ditch. Core diameter: 5 cm. Area: 10 ha. Mesotrophic peat-bog. Physiography: nEN slope of a hill. Surrounding vegetation: degraded meadow and pasture communities.
	JASLO (Core4) * LATITUDE: 49.783333 * LONGITUDE: 21.466667 * DATE/TIME: 1988-06-30T00:00:00 * ELEVATION: 250.0 m * LOCATION: Jaslo, Poland * DEVICE: Sampling by hand (HAND) * COMMENT: Valley in the eastern part of the Jaslo. Jasiolka River valley. Surrounding vegetation: meadows.
	JC-3-A (JC-3-A) * LATITUDE: 48.850000 * LONGITUDE: 14.933333 * ELEVATION: 470.0 m * LOCATION: Cervene blato, Czech Republic
	JC-5-A (JC-5-A) * LATITUDE: 49.216667 * LONGITUDE: 14.900000 * ELEVATION: 415.0 m * LOCATION: Borkovicka blata, Czech Republic
	JC-5-D (JC-5-D) * LATITUDE: 49.216667 * LONGITUDE: 14.900000 * ELEVATION: 415.0 m * LOCATION: Borkovicka blata, Czech Republic
	JH05 * LATITUDE: 54.266700 * LONGITUDE: 22.816700 * ELEVATION: 229.0 m * Recovery: 8.2 m * LOCATION: Lake Hancza, Suwazki-Augustów Lake District, northeastern Poland * DEVICE: Piston corer (Uwitec) (PCUWI) * COMMENT: Composite profile consisting of cores JH05_03 and JH05_04; DEPTH are given as composite depth.
	JUFPLAN (JufPlan) * LATITUDE: 46.625000 * LONGITUDE: 10.258611 * DATE/TIME: 1958-09-04T00:00:00 * ELEVATION: 2225.0 m * LOCATION: Juf Plan, Switzerland * DEVICE: Hiller corer (HILC) * COMMENT: No laminations. NW part af foot of large debris slope. Local vegetation: Salix foet., Carex4spp., Prim.far., Sel.selplateau with marsh.
	KAAKOTIN (Core1) * LATITUDE: 61.416667 * LONGITUDE: 25.866667 * DATE/TIME: 1980-05-15T00:00:00 * ELEVATION START: 104.0 m * ELEVATION END: 1.8 m * LOCATION: Kaarkotinlampi, Finland * DEVICE: Livingstone corer (LIVC) * COMMENT: middle of the pool. Core diameter: 5 cm. Area: 0.2 ha. a small lake with marginal fen. Physiography: mire pool enclosed by forest. Surrounding vegetation: peat.
	KAARTLAM * LATITUDE: 60.733333 * LONGITUDE: 24.216667 * DATE/TIME: 1984-06-30T00:00:00 * ELEVATION START: 115.0 m * ELEVATION END: 2.7 m * LOCATION: Kaartlamminsuo, Finland * DEVICE: Russian peat corer (RPC) * COMMENT: W of the lake, ca 100 m from the shore. Core diameter: 5 cm. Area: 50 ha. Fen surrounding a lake. Physiography: Sphagnum peat bog. Surrounding vegetation: Pinus forest.
	KALSA * LATITUDE: 58.166667 * LONGITUDE: 27.450000 * ELEVATION START: 38.0 m * ELEVATION END: 0.0 m * LOCATION: Kalsa Mire, Estonia * DEVICE: Russian corer (RUSC) * COMMENT: Local vegetation: Sphagnum. Core diameter: 10 cm. Area: 170 ha. Mire, peat cutting at the edges. Physiography: undulating moraine topography. Surrounding vegetation: Pinus, Betula, Picea forest. in SW field.
	KALVEN * LATITUDE: 56.533333 * LONGITUDE: 14.555556 * ELEVATION START: 163.0 m * ELEVATION END: 0.8 m * LOCATION: Kalven, Sweden * DEVICE: Russian corer (RUSC) * COMMENT: Core diameter: 10 cm. Small lake - kettle hole. Physiography: in hummocky morraine. Surrounding vegetation: mainly spruce.
	KAMEN (CoreCV-34-C) * LATITUDE: 49.733333 * LONGITUDE: 15.966667 * DATE/TIME: 1976-06-30T00:00:00 * ELEVATION START: 624.0 m * ELEVATION END: 1.3 m * LOCATION: Kamenicky, Czech Republic * COMMENT: center of the mire, near the spring. Local vegetation: ruderal secondary vegetation. Core diameter: 10 cm. Area: 0.5 ha. Drained sloping spring mire. Physiography: Kamenicska kotlina basin at its N margin. Surrounding vegetation: Alder carr.
	KANGERJ * LATITUDE: 66.116667 * LONGITUDE: 29.000000 * DATE/TIME: 1972-07-15T00:00:00 * ELEVATION: 288.0 m * LOCATION: Kangerjoki, Finland * DEVICE: Metal boxes (30x5 cm) (MBOX305) * COMMENT: Drainage ditch S of road. Area: 16 ha. Edge of a mire area between lakes. Physiography: undulating till. Surrounding vegetation: pine forest with spruce, some fields.
	KANSJON * LATITUDE: 57.633333 * LONGITUDE: 14.533333 * DATE/TIME: 1988-06-30T00:00:00 * ELEVATION START: 308.0 m * ELEVATION END: 13.1 m * LOCATION: Kansjon, Sweden * DEVICE: Russian corer (RUSC) * COMMENT: Near deepest part of the lake. Core diameter: 10 cm. Area: 80 ha. Lake. Physiography: Rolling till surface. Surrounding vegetation: Pinus, Betula.
	KARAMIK * LATITUDE: 38.425000 * LONGITUDE: 30.800000 * DATE/TIME: 1970-06-15T00:00:00 * ELEVATION START: 1000.0 m * ELEVATION END: 0.0 m * LOCATION: Kararmik Batakligi, Turkey * DEVICE: Dachnowski corer (DACH) * COMMENT: SW Turkey, 2.5 km SE of village Bulanik. Core diameter: 3.6 cm. Area: 4000 ha. Marsh, partly open water. Surrounding vegetation: steppic vegetation.
	KARASEOZ * LATITUDE: 56.766667 * LONGITUDE: 60.750000 * DATE/TIME: 1989-08-23T00:00:00 * ELEVATION: 230.0 m * LOCATION: Karasieozerskoe, Russia * COMMENT: Area: 914 ha. Drained peatland. Physiography: low elevation mountains. Surrounding vegetation: Pinus sylvestris, Betula pubescens.
	KARDAS * LATITUDE: 46.516667 * LONGITUDE: 32.616667 * DATE/TIME: 1988-06-15T00:00:00 * ELEVATION: 4.0 m * LOCATION: Kardashinski Swamp, Ukraine * DEVICE: Russian corer (RUSC) * COMMENT: No laminations. Local vegetation: Phragmites/Typha. Core diameter: 5 cm. Area: 3000 ha. Phragmites fen. Physiography: floodplain of Dniepr River. Vegetation formation: steppe.
	KARU * LATITUDE: 58.383330 * LONGITUDE: 22.200000 * DATE/TIME: 1987-02-15T00:00:00 * ELEVATION: 32.0 m * Lake water depth: 2 m * LOCATION: Lake Karujarv, Estonia * DEVICE: Russian peat sampler (RPS) * COMMENT: North Western part of the lake. Core diameter: 9 cm. Area: 330 ha. Lake, eutrophic. Physiography: located on the western Saaremaa elevation. Surrounding vegetation: Pinus, Alnus, Corylus, Acer, Fraxinus.
